time_s,odom_pos_x,odom_pos_y,odom_pos_z,odom_vel_x,odom_vel_y,odom_vel_z,odom_ang_vel_x,odom_ang_vel_y,odom_ang_vel_z,odom_roll,odom_pitch,odom_yaw,imu_ang_vel_x,imu_ang_vel_y,imu_ang_vel_z,imu_lin_acc_x,imu_lin_acc_y,imu_lin_acc_z,imu_roll,imu_pitch,imu_yaw,vel_sp_x,vel_sp_y,vel_sp_z,wp_cmd_x,wp_cmd_y,wp_cmd_z,wp_enable,wp_reached,rate_sp_x,rate_sp_y,rate_sp_z,att_cmd_roll,att_cmd_pitch,att_cmd_yaw,att_sp_roll,att_sp_pitch,att_sp_yaw,accel_sp_x,accel_sp_y,accel_sp_z,cmd_att_roll,cmd_att_pitch,cmd_att_yaw,cmd_rate_x,cmd_rate_y,cmd_rate_z,cmd_thrust,vel_enable,att_enable,x3_enable,att_reached,controller_status,mixer_0,mixer_1,mixer_2,mixer_3,motor_0,motor_1,motor_2,motor_3,motor_4,motor_5,motor_6,motor_7,mode
0.291394,,,,,,,,,,,,,,,,,,,,,,,,,,,,,,,,,,,,,,,,,,,,,,,,,,,,,,,,,,,,,,,,,,
0.303634,-1.447801,0.000831,2.217097,-1.552982,-0.000632,0.037292,-0.000733,0.111155,0.000163,-0.000335,-0.117963,-3.141553,-0.000893,0.074415,0.000087,0.087281,0.000276,9.827426,-0.000324,-0.321555,0.000040,1.633426,0.000015,-0.140628,0.000000,0.000000,2.000000,1.000000,,0.000000,0.000000,-0.000088,0.000000,0.000000,3.141590,,,,,,,,,,,,,,1.000000,,,1.000000,"0.000000,0.000000,3.000000,0.000000,0.000000,0.000000,0.000000",,,,,,,,,,,,,
0.324029,-1.384273,0.000853,2.210758,-1.595951,-0.000491,0.017760,0.000081,0.386988,0.000064,-0.000331,-0.102483,-3.141555,0.000319,0.474816,0.000074,0.052594,-0.000009,9.460520,-0.000344,-0.306734,0.000043,1.583240,-0.000034,-0.142315,0.000000,0.000000,2.000000,1.000000,,0.000000,0.000000,-0.000097,0.000000,0.000000,3.141590,,,,,,,,,,,,,,1.000000,,,1.000000,"0.000000,0.000000,3.000000,0.000000,0.000000,0.000000,0.000000",,,,,,,,,,,,,
0.348991,-1.384273,0.000853,2.210758,-1.595951,-0.000491,0.017760,0.000081,0.386988,0.000064,-0.000331,-0.102483,-3.141555,0.001038,0.665629,0.000003,0.042018,-0.000826,9.357775,-0.000329,-0.294962,0.000038,1.560001,-0.000047,-0.140662,0.000000,0.000000,2.000000,1.000000,,0.000000,0.000000,-0.000090,0.000000,0.000000,3.141590,,,,,,,,,,,,,,1.000000,,,1.000000,"0.000000,0.000000,3.000000,0.000000,0.000000,0.000000,0.000000",,,,,,,,,,,,,
0.365161,-1.351956,0.000862,2.207337,-1.615492,-0.000424,-0.004281,0.000563,0.570705,-0.000022,-0.000314,-0.089164,-3.141561,0.000717,0.744471,0.000027,0.041936,-0.000226,9.328077,-0.000322,-0.289164,0.000036,1.534409,-0.000060,-0.138788,0.000000,0.000000,2.000000,1.000000,,0.000000,0.000000,-0.000078,0.000000,0.000000,3.141590,,,,,,,,,,,,,,1.000000,,,1.000000,"0.000000,0.000000,3.000000,0.000000,0.000000,0.000000,0.000000",,,,,,,,,,,,,
0.385307,-1.319336,0.000870,2.203716,-1.632467,-0.000361,-0.034474,0.000667,0.763078,-0.000020,-0.000304,-0.071960,-3.141566,0.000215,0.931599,0.000121,0.040379,0.000431,9.395725,-0.000310,-0.271960,0.000031,1.531850,-0.000065,-0.139511,0.000000,0.000000,2.000000,1.000000,,0.000000,0.000000,-0.000067,0.000000,0.000000,3.141590,,,,,,,,,,,,,,1.000000,,,1.000000,"0.000000,0.000000,3.000000,0.000000,0.000000,0.000000,0.000000",,,,,,,,,,,,,
0.404687,-1.286476,0.000877,2.199929,-1.645762,-0.000301,-0.071125,0.000667,0.945115,0.000044,-0.000287,-0.051359,-3.141570,0.001975,1.100572,0.000180,0.030415,-0.000621,9.471077,-0.000292,-0.251359,0.000026,1.508107,-0.000076,-0.137313,0.000000,0.000000,2.000000,1.000000,,0.000000,0.000000,-0.000067,0.000000,0.000000,3.141590,,,,,,,,,,,,,,1.000000,,,1.000000,"0.000000,0.000000,3.000000,0.000000,0.000000,0.000000,0.000000",,,,,,,,,,,,,
0.426955,-1.253452,0.000883,2.196032,-1.654316,-0.000239,-0.111868,0.002042,1.109160,0.000151,-0.000222,-0.027594,-3.141572,0.003451,1.186368,0.000145,0.028807,0.000743,9.574570,-0.000257,-0.237490,0.000025,1.482074,-0.000087,-0.134781,0.000000,0.000000,2.000000,1.000000,,0.000000,0.000000,-0.000056,0.000000,0.000000,3.141590,,,,,,,,,,,,,,1.000000,,,1.000000,"0.000000,0.000000,3.000000,0.000000,0.000000,0.000000,0.000000",,,,,,,,,,,,,
0.447082,-1.253452,0.000883,2.196032,-1.654316,-0.000239,-0.111868,0.002042,1.109160,0.000151,-0.000222,-0.027594,-3.141572,0.002877,1.347755,0.000271,0.032604,-0.001462,9.758336,-0.000185,-0.211732,0.000024,1.455693,-0.000096,-0.132090,0.000000,0.000000,2.000000,1.000000,,0.000000,0.000000,-0.000053,0.000000,0.000000,3.141590,,,,,,,,,,,,,,1.000000,,,1.000000,"0.000000,0.000000,3.000000,0.000000,0.000000,0.000000,0.000000",,,,,,,,,,,,,
0.464205,-1.220354,0.000887,2.192069,-1.657179,-0.000188,-0.155965,0.002988,1.267934,0.000249,-0.000167,-0.000642,-3.141571,-0.000288,1.492668,0.000146,0.020251,-0.000733,9.815120,-0.000171,-0.183107,0.000024,1.429224,-0.000106,-0.129469,0.000000,0.000000,2.000000,1.000000,,0.000000,0.000000,-0.000054,0.000000,0.000000,3.141590,,,,,,,,,,,,,,1.000000,,,1.000000,"0.000000,0.000000,3.000000,0.000000,0.000000,0.000000,0.000000",,,,,,,,,,,,,
0.484398,-1.187285,0.000891,2.188105,-1.653413,-0.000152,-0.202589,0.001325,1.420029,0.000236,-0.000169,0.029208,-3.141573,0.000002,1.555764,0.000144,0.016670,0.001887,9.785119,-0.000173,-0.170792,0.000023,1.426577,-0.000111,-0.130032,0.000000,0.000000,2.000000,1.000000,,0.000000,0.000000,-0.000054,0.000000,0.000000,3.141590,,,,,,,,,,,,,,1.000000,,,1.000000,"0.000000,0.000000,3.000000,0.000000,0.000000,0.000000,0.000000",,,,,,,,,,,,,
0.504030,-1.187285,0.000891,2.188105,-1.653413,-0.000152,-0.202589,0.001325,1.420029,0.000236,-0.000169,0.029208,-3.141573,0.000002,1.555764,0.000144,0.016670,0.001887,9.785119,-0.000173,-0.170792,0.000023,1.426577,-0.000111,-0.130032,0.000000,0.000000,2.000000,1.000000,,0.000000,0.000000,-0.000054,0.000000,0.000000,3.141590,,,,,,,,,,,,,,1.000000,,,1.000000,"0.000000,0.000000,3.000000,0.000000,0.000000,0.000000,0.000000",,,,,,,,,,,,,
0.526202,-1.187285,0.000891,2.188105,-1.653413,-0.000152,-0.202589,0.001325,1.420029,0.000236,-0.000169,0.029208,-3.141573,0.000002,1.555764,0.000144,0.016670,0.001887,9.785119,-0.000173,-0.170792,0.000023,1.426577,-0.000111,-0.130032,0.000000,0.000000,2.000000,1.000000,,0.000000,0.000000,-0.000054,0.000000,0.000000,3.141590,,,,,,,,,,,,,,1.000000,,,1.000000,"0.000000,0.000000,3.000000,0.000000,0.000000,0.000000,0.000000",,,,,,,,,,,,,
0.544443,-1.187285,0.000891,2.188105,-1.653413,-0.000152,-0.202589,0.001325,1.420029,0.000236,-0.000169,0.029208,-3.141573,0.000002,1.555764,0.000144,0.016670,0.001887,9.785119,-0.000173,-0.170792,0.000023,1.426577,-0.000111,-0.130032,0.000000,0.000000,2.000000,1.000000,,0.000000,0.000000,-0.000054,0.000000,0.000000,3.141590,,,,,,,,,,,,,,1.000000,,,1.000000,"0.000000,0.000000,3.000000,0.000000,0.000000,0.000000,0.000000",,,,,,,,,,,,,
0.563804,-1.187285,0.000891,2.188105,-1.653413,-0.000152,-0.202589,0.001325,1.420029,0.000236,-0.000169,0.029208,-3.141573,0.000002,1.555764,0.000144,0.016670,0.001887,9.785119,-0.000173,-0.170792,0.000023,1.426577,-0.000111,-0.130032,0.000000,0.000000,2.000000,1.000000,,0.000000,0.000000,-0.000054,0.000000,0.000000,3.141590,,,,,,,,,,,,,,1.000000,,,1.000000,"0.000000,0.000000,3.000000,0.000000,0.000000,0.000000,0.000000",,,,,,,,,,,,,
0.586693,-1.187285,0.000891,2.188105,-1.653413,-0.000152,-0.202589,0.001325,1.420029,0.000236,-0.000169,0.029208,-3.141573,0.000002,1.555764,0.000144,0.016670,0.001887,9.785119,-0.000173,-0.170792,0.000023,1.426577,-0.000111,-0.130032,0.000000,0.000000,2.000000,1.000000,,0.000000,0.000000,-0.000054,0.000000,0.000000,3.141590,,,,,,,,,,,,,,1.000000,,,1.000000,"0.000000,0.000000,3.000000,0.000000,0.000000,0.000000,0.000000",,,,,,,,,,,,,
0.608170,-1.187285,0.000891,2.188105,-1.653413,-0.000152,-0.202589,0.001325,1.420029,0.000236,-0.000169,0.029208,-3.141573,0.000002,1.555764,0.000144,0.016670,0.001887,9.785119,-0.000173,-0.170792,0.000023,1.426577,-0.000111,-0.130032,0.000000,0.000000,2.000000,1.000000,,0.000000,0.000000,-0.000054,0.000000,0.000000,3.141590,,,,,,,,,,,,,,1.000000,,,1.000000,"0.000000,0.000000,3.000000,0.000000,0.000000,0.000000,0.000000",,,,,,,,,,,,,
0.627721,-1.187285,0.000891,2.188105,-1.653413,-0.000152,-0.202589,0.001325,1.420029,0.000236,-0.000169,0.029208,-3.141573,0.000002,1.555764,0.000144,0.016670,0.001887,9.785119,-0.000173,-0.170792,0.000023,1.426577,-0.000111,-0.130032,0.000000,0.000000,2.000000,1.000000,,0.000000,0.000000,-0.000054,0.000000,0.000000,3.141590,,,,,,,,,,,,,,1.000000,,,1.000000,"0.000000,0.000000,3.000000,0.000000,0.000000,0.000000,0.000000",,,,,,,,,,,,,
0.645982,-1.187285,0.000891,2.188105,-1.653413,-0.000152,-0.202589,0.001325,1.420029,0.000236,-0.000169,0.029208,-3.141573,0.000002,1.555764,0.000144,0.016670,0.001887,9.785119,-0.000173,-0.170792,0.000023,1.426577,-0.000111,-0.130032,0.000000,0.000000,2.000000,1.000000,,0.000000,0.000000,-0.000054,0.000000,0.000000,3.141590,,,,,,,,,,,,,,1.000000,,,1.000000,"0.000000,0.000000,3.000000,0.000000,0.000000,0.000000,0.000000",,,,,,,,,,,,,
0.672374,-1.187285,0.000891,2.188105,-1.653413,-0.000152,-0.202589,0.001325,1.420029,0.000236,-0.000169,0.029208,-3.141573,0.000002,1.555764,0.000144,0.016670,0.001887,9.785119,-0.000173,-0.170792,0.000023,1.426577,-0.000111,-0.130032,0.000000,0.000000,2.000000,1.000000,,0.000000,0.000000,-0.000054,0.000000,0.000000,3.141590,,,,,,,,,,,,,,1.000000,,,1.000000,"0.000000,0.000000,3.000000,0.000000,0.000000,0.000000,0.000000",,,,,,,,,,,,,
0.689632,-1.187285,0.000891,2.188105,-1.653413,-0.000152,-0.202589,0.001325,1.420029,0.000236,-0.000169,0.029208,-3.141573,0.000002,1.555764,0.000144,0.016670,0.001887,9.785119,-0.000173,-0.170792,0.000023,1.426577,-0.000111,-0.130032,0.000000,0.000000,2.000000,1.000000,,0.000000,0.000000,-0.000054,0.000000,0.000000,3.141590,,,,,,,,,,,,,,1.000000,,,1.000000,"0.000000,0.000000,3.000000,0.000000,0.000000,0.000000,0.000000",,,,,,,,,,,,,
0.705500,-1.187285,0.000891,2.188105,-1.653413,-0.000152,-0.202589,0.001325,1.420029,0.000236,-0.000169,0.029208,-3.141573,0.000002,1.555764,0.000144,0.016670,0.001887,9.785119,-0.000173,-0.170792,0.000023,1.426577,-0.000111,-0.130032,0.000000,0.000000,2.000000,1.000000,,0.000000,0.000000,-0.000054,0.000000,0.000000,3.141590,,,,,,,,,,,,,,1.000000,,,1.000000,"0.000000,0.000000,3.000000,0.000000,0.000000,0.000000,0.000000",,,,,,,,,,,,,
0.729335,-1.187285,0.000891,2.188105,-1.653413,-0.000152,-0.202589,0.001325,1.420029,0.000236,-0.000169,0.029208,-3.141573,0.000002,1.555764,0.000144,0.016670,0.001887,9.785119,-0.000173,-0.170792,0.000023,1.426577,-0.000111,-0.130032,0.000000,0.000000,2.000000,1.000000,,0.000000,0.000000,-0.000054,0.000000,0.000000,3.141590,,,,,,,,,,,,,,1.000000,,,1.000000,"0.000000,0.000000,3.000000,0.000000,0.000000,0.000000,0.000000",,,,,,,,,,,,,
0.753984,-1.187285,0.000891,2.188105,-1.653413,-0.000152,-0.202589,0.001325,1.420029,0.000236,-0.000169,0.029208,-3.141573,0.000002,1.555764,0.000144,0.016670,0.001887,9.785119,-0.000173,-0.170792,0.000023,1.426577,-0.000111,-0.130032,0.000000,0.000000,2.000000,1.000000,,0.000000,0.000000,-0.000054,0.000000,0.000000,3.141590,,,,,,,,,,,,,,1.000000,,,1.000000,"0.000000,0.000000,3.000000,0.000000,0.000000,0.000000,0.000000",,,,,,,,,,,,,
0.770448,-1.187285,0.000891,2.188105,-1.653413,-0.000152,-0.202589,0.001325,1.420029,0.000236,-0.000169,0.029208,-3.141573,0.000002,1.555764,0.000144,0.016670,0.001887,9.785119,-0.000173,-0.170792,0.000023,1.426577,-0.000111,-0.130032,0.000000,0.000000,2.000000,1.000000,,0.000000,0.000000,-0.000054,0.000000,0.000000,3.141590,,,,,,,,,,,,,,1.000000,,,1.000000,"0.000000,0.000000,3.000000,0.000000,0.000000,0.000000,0.000000",,,,,,,,,,,,,
0.784880,-1.187285,0.000891,2.188105,-1.653413,-0.000152,-0.202589,0.001325,1.420029,0.000236,-0.000169,0.029208,-3.141573,0.000002,1.555764,0.000144,0.016670,0.001887,9.785119,-0.000173,-0.170792,0.000023,1.426577,-0.000111,-0.130032,0.000000,0.000000,2.000000,1.000000,,0.000000,0.000000,-0.000054,0.000000,0.000000,3.141590,,,,,,,,,,,,,,1.000000,,,1.000000,"0.000000,0.000000,3.000000,0.000000,0.000000,0.000000,0.000000",,,,,,,,,,,,,
0.803546,-1.187285,0.000891,2.188105,-1.653413,-0.000152,-0.202589,0.001325,1.420029,0.000236,-0.000169,0.029208,-3.141573,0.000002,1.555764,0.000144,0.016670,0.001887,9.785119,-0.000173,-0.170792,0.000023,1.426577,-0.000111,-0.130032,0.000000,0.000000,2.000000,1.000000,,0.000000,0.000000,-0.000054,0.000000,0.000000,3.141590,,,,,,,,,,,,,,1.000000,,,1.000000,"0.000000,0.000000,3.000000,0.000000,0.000000,0.000000,0.000000",,,,,,,,,,,,,
0.823437,-0.967444,0.000910,2.160021,-1.397612,-0.000056,-0.541837,0.000025,1.412746,0.000081,0.000031,0.256035,-3.141533,-0.001062,1.320391,-0.000063,0.052239,-0.000062,9.669472,0.000024,0.045941,0.000061,1.247370,-0.000198,-0.115759,0.000000,0.000000,2.000000,1.000000,,0.000000,0.000000,-0.000139,0.000000,0.000000,3.141590,,,,,,,,,,,,,,1.000000,,,1.000000,"0.000000,0.000000,3.000000,0.000000,0.000000,0.000000,0.000000",,,,,,,,,,,,,
0.850986,-0.939222,0.000912,2.155622,-1.334061,-0.000061,-0.573927,-0.000201,1.222436,-0.000021,0.000043,0.278533,-3.141533,-0.000045,0.929533,-0.000080,0.058767,0.001316,9.895921,0.000034,0.090157,0.000060,1.201606,-0.000224,-0.110995,0.000000,0.000000,2.000000,1.000000,,0.000000,0.000000,-0.000141,0.000000,0.000000,3.141590,,,,,,,,,,,,,,1.000000,,,1.000000,"0.000000,0.000000,3.000000,0.000000,0.000000,0.000000,0.000000",,,,,,,,,,,,,
0.876275,-0.912113,0.000915,2.151056,-1.267468,-0.000070,-0.597182,0.000279,1.027961,-0.000027,0.000042,0.297154,-3.141532,-0.000794,0.859102,0.000034,0.056779,0.000834,10.099414,0.000030,0.097154,0.000061,1.181862,-0.000237,-0.108727,0.000000,0.000000,2.000000,1.000000,,0.000000,0.000000,-0.000142,0.000000,0.000000,3.141590,-0.000204,-0.046642,-3.141533,0.507386,-0.002180,1.060495,,,,,,,,1.000000,,,1.000000,"0.000000,0.000000,3.000000,0.000000,0.000000,0.000000,0.000000",50.448346,-0.021599,0.505921,-0.004194,462.832509,464.183288,470.419042,475.317128,478.545403,475.786650,471.089756,464.664060,
0.892807,-0.912113,0.000915,2.151056,-1.267468,-0.000070,-0.597182,0.000279,1.027961,-0.000027,0.000042,0.297154,-3.141532,-0.001422,0.756023,0.000070,0.059346,0.001932,10.075074,0.000015,0.106651,0.000062,1.179908,-0.000243,-0.109213,0.000000,0.000000,2.000000,1.000000,,0.000000,0.000000,-0.000142,0.000000,0.000000,3.141590,-0.000226,-0.191802,-3.141532,2.160666,-0.002341,1.316598,,,,,,,,1.000000,,,1.000000,"0.000000,0.000000,3.000000,0.000000,0.000000,0.000000,0.000000",49.459386,0.000989,-5.000000,-0.006959,539.066808,517.739102,466.384232,405.802407,380.008650,405.777220,466.353241,517.719361,
0.907281,-0.886217,0.000918,2.146406,-1.198956,-0.000077,-0.609269,-0.000661,0.842946,-0.000004,0.000017,0.312251,-3.141531,-0.001253,0.681034,-0.000157,0.064406,-0.001162,10.180475,0.000004,0.112251,0.000061,1.161067,-0.000251,-0.105928,0.000000,0.000000,2.000000,1.000000,,0.000000,0.000000,-0.000142,0.000000,0.000000,3.141590,-0.000239,-0.087739,-3.141532,0.971120,-0.002571,1.229807,,,,,,,,1.000000,,,1.000000,"0.000000,0.000000,3.000000,0.000000,0.000000,0.000000,0.000000",51.378362,-0.007745,-5.000000,-0.005825,546.732333,525.807373,475.089257,416.047124,390.806596,416.239519,475.327506,525.959620,
0.930051,-0.886217,0.000918,2.146406,-1.198956,-0.000077,-0.609269,-0.000661,0.842946,-0.000004,0.000017,0.312251,-3.141531,-0.000989,0.565114,-0.000163,0.067542,0.000181,10.272653,-0.000009,0.119498,0.000060,1.159183,-0.000256,-0.106302,0.000000,0.000000,2.000000,1.000000,,0.000000,0.000000,-0.000144,0.000000,0.000000,3.141590,-0.000301,-0.224268,-3.141531,2.548879,-0.003122,1.364139,,,,,,,,1.000000,,,1.000000,"0.000000,0.000000,3.000000,0.000000,0.000000,0.000000,0.000000",51.988077,-0.008025,-5.000000,-0.000300,548.758403,528.771541,477.415176,419.787039,393.636044,419.984610,477.660830,528.928404,
0.946064,-0.886217,0.000918,2.146406,-1.198956,-0.000077,-0.609269,-0.000661,0.842946,-0.000004,0.000017,0.312251,-3.141531,-0.000989,0.565114,-0.000163,0.067542,0.000181,10.272653,-0.000009,0.119498,0.000060,1.158994,-0.000261,-0.107151,0.000000,0.000000,2.000000,1.000000,,0.000000,0.000000,-0.000144,0.000000,0.000000,3.141590,-0.000305,-0.146138,-3.141531,1.650227,-0.003282,1.401724,,,,,,,,1.000000,,,1.000000,"0.000000,0.000000,3.000000,0.000000,0.000000,0.000000,0.000000",52.540198,-0.002201,-5.000000,-0.000300,550.960396,531.113108,480.033286,422.732716,396.700024,422.786542,480.100314,531.155951,
0.968370,-0.861607,0.000920,2.141707,-1.129448,-0.000071,-0.610786,-0.001157,0.659907,-0.000033,-0.000004,0.323550,-3.141533,-0.001194,0.487197,-0.000203,0.070841,-0.000911,10.380897,-0.000017,0.123550,0.000060,1.158975,-0.000267,-0.108055,0.000000,0.000000,2.000000,1.000000,,0.000000,0.000000,-0.000144,0.000000,0.000000,3.141590,-0.000292,-0.113741,-3.141531,1.264973,-0.003136,1.263473,,,,,,,,1.000000,,,1.000000,"0.000000,0.000000,3.000000,0.000000,0.000000,0.000000,0.000000",51.470015,-0.004020,-5.000000,-0.000180,546.675125,526.667276,475.080727,417.133354,390.726558,417.232976,475.204418,526.746182,
0.985701,-0.861607,0.000920,2.141707,-1.129448,-0.000071,-0.610786,-0.001157,0.659907,-0.000033,-0.000004,0.323550,-3.141533,-0.001194,0.487197,-0.000203,0.070841,-0.000911,10.380897,-0.000017,0.123550,0.000060,1.141254,-0.000274,-0.104602,0.000000,0.000000,2.000000,1.000000,,0.000000,0.000000,-0.000140,0.000000,0.000000,3.141590,-0.000292,-0.232980,-3.141533,2.624597,-0.002985,1.250772,,,,,,,,1.000000,,,1.000000,"0.000000,0.000000,3.000000,0.000000,0.000000,0.000000,0.000000",51.269257,-0.004669,-5.000000,-0.000180,545.869184,525.824314,474.143108,416.068534,389.598147,416.184525,474.287038,525.916099,
1.004305,-0.838343,0.000923,2.136997,-1.059846,-0.000060,-0.603624,-0.001020,0.467222,-0.000068,-0.000025,0.330940,-3.141534,-0.001061,0.290621,0.000101,0.072919,0.000020,10.352550,-0.000037,0.130940,0.000058,1.139482,-0.000280,-0.104999,0.000000,0.000000,2.000000,1.000000,,0.000000,0.000000,-0.000140,0.000000,0.000000,3.141590,-0.000296,-0.126484,-3.141533,1.404845,-0.003158,1.237590,,,,,,,,1.000000,,,1.000000,"0.000000,0.000000,3.000000,0.000000,0.000000,0.000000,0.000000",51.975354,-0.000887,-5.000000,0.000972,548.612158,528.887514,477.356377,419.933112,393.432142,419.954943,477.383535,528.904848,
1.024082,-0.838343,0.000923,2.136997,-1.059846,-0.000060,-0.603624,-0.001020,0.467222,-0.000068,-0.000025,0.330940,-3.141534,-0.000964,0.170334,-0.000204,0.075244,0.001265,10.323280,-0.000049,0.133466,0.000057,1.122555,-0.000287,-0.101520,0.000000,0.000000,2.000000,1.000000,,0.000000,0.000000,-0.000138,0.000000,0.000000,3.141590,-0.000291,-0.213981,-3.141534,2.433456,-0.003040,1.388185,,,,,,,,1.000000,,,1.000000,"0.000000,0.000000,3.000000,0.000000,0.000000,0.000000,0.000000",53.290284,-0.005422,-5.000000,-0.007725,554.489127,533.597894,484.030693,425.850360,401.586532,425.981952,484.194407,533.702921,
1.044332,-0.838343,0.000923,2.136997,-1.059846,-0.000060,-0.603624,-0.001020,0.467222,-0.000068,-0.000025,0.330940,-3.141534,-0.000932,0.089897,-0.000111,0.077478,-0.002150,10.442982,-0.000057,0.134346,0.000056,1.120862,-0.000293,-0.102016,0.000000,0.000000,2.000000,1.000000,,0.000000,0.000000,-0.000138,0.000000,0.000000,3.141590,-0.000298,-0.186807,-3.141534,2.101781,-0.003139,1.309922,,,,,,,,1.000000,,,1.000000,"0.000000,0.000000,3.000000,0.000000,0.000000,0.000000,0.000000",52.057319,-0.003261,-5.000000,-0.002448,549.196024,528.938074,477.990985,419.996788,394.245892,420.077038,478.090696,529.001798,
1.070401,-0.816454,0.000926,2.132269,-0.991008,-0.000047,-0.589688,-0.000987,0.269903,-0.000093,-0.000045,0.334346,-3.141537,-0.000946,-0.110419,0.000026,0.083363,0.000625,10.481271,-0.000075,0.133738,0.000053,1.104933,-0.000300,-0.098486,0.000000,0.000000,2.000000,1.000000,,0.000000,0.000000,-0.000131,0.000000,0.000000,3.141590,-0.000292,-0.299162,-3.141537,3.482368,-0.002962,1.481064,,,,,,,,1.000000,,,1.000000,"0.000000,0.000000,3.000000,0.000000,0.000000,0.000000,0.000000",52.966091,0.002052,-5.000000,0.001068,552.551156,533.015558,481.922764,425.120455,398.906418,425.070557,481.860519,532.975761,
1.083640,-0.795966,0.000928,2.127559,-0.923645,-0.000032,-0.570014,-0.000945,0.069968,-0.000131,-0.000064,0.333738,-3.141540,-0.000946,-0.110419,0.000026,0.083363,0.000625,10.481271,-0.000075,0.133738,0.000053,1.088589,-0.000309,-0.094698,0.000000,0.000000,2.000000,1.000000,,0.000000,0.000000,-0.000125,0.000000,0.000000,3.141590,-0.000164,-0.299825,-3.141540,3.500000,-0.001594,1.511579,,,,,,,,1.000000,,,1.000000,"0.000000,0.000000,3.000000,0.000000,0.000000,0.000000,0.000000",54.436555,0.015456,-5.000000,-0.005285,558.824604,538.675040,489.303237,432.195112,407.551823,431.825259,488.841251,538.378341,
1.103987,-0.776889,0.000930,2.122907,-0.858375,-0.000014,-0.544408,-0.000785,-0.130684,-0.000156,-0.000078,0.329119,-3.141543,-0.000134,-0.311593,-0.000204,0.089379,-0.000764,10.749385,-0.000089,0.129119,0.000050,1.086954,-0.000313,-0.094825,0.000000,0.000000,2.000000,1.000000,,0.000000,0.000000,-0.000125,0.000000,0.000000,3.141590,-0.000258,-0.300210,-3.141540,3.499999,-0.002601,1.496127,,,,,,,,1.000000,,,1.000000,"0.000000,0.000000,3.000000,0.000000,0.000000,0.000000,0.000000",54.517259,-0.000292,-5.000000,0.000000,558.752151,539.255871,488.985143,432.918827,407.452473,432.925806,488.993880,539.261474,
1.126260,-0.776889,0.000930,2.122907,-0.858375,-0.000014,-0.544408,-0.000785,-0.130684,-0.000156,-0.000078,0.329119,-3.141543,-0.000272,-0.432564,-0.000390,0.093017,-0.000670,10.852985,-0.000093,0.124411,0.000048,1.073055,-0.000321,-0.091425,0.000000,0.000000,2.000000,1.000000,,0.000000,0.000000,-0.000117,0.000000,0.000000,3.141590,-0.000139,-0.300535,-3.141543,3.500000,-0.001327,1.483157,,,,,,,,1.000000,,,1.000000,"0.000000,0.000000,3.000000,0.000000,0.000000,0.000000,0.000000",54.472931,0.001395,-5.000000,0.006955,557.678751,539.298793,487.754673,432.972290,405.979236,432.984937,487.770549,539.308946,
1.145447,-0.759231,0.000931,2.118406,-0.795725,0.000003,-0.512448,-0.000516,-0.331742,-0.000140,-0.000087,0.320469,-3.141545,-0.000885,-0.632023,-0.000053,0.097754,-0.001215,10.893915,-0.000105,0.113361,0.000050,1.058952,-0.000327,-0.087662,0.000000,0.000000,2.000000,1.000000,,0.000000,0.000000,-0.000114,0.000000,0.000000,3.141590,-0.000125,-0.299145,-3.141545,3.500000,-0.001185,1.538914,,,,,,,,1.000000,,,1.000000,"0.000000,0.000000,3.000000,0.000000,0.000000,0.000000,0.000000",54.280978,0.005441,-5.000000,-0.003399,559.360781,539.652577,489.837397,433.412874,408.286706,433.169013,489.532268,539.456743,
1.164214,-0.759231,0.000931,2.118406,-0.795725,0.000003,-0.512448,-0.000516,-0.331742,-0.000140,-0.000087,0.320469,-3.141545,-0.000885,-0.632023,-0.000053,0.097754,-0.001215,10.893915,-0.000105,0.113361,0.000050,1.057542,-0.000333,-0.087855,0.000000,0.000000,2.000000,1.000000,,0.000000,0.000000,-0.000114,0.000000,0.000000,3.141590,-0.000165,-0.300945,-3.141545,3.500000,-0.001610,1.466808,,,,,,,,1.000000,,,1.000000,"0.000000,0.000000,3.000000,0.000000,0.000000,0.000000,0.000000",54.436624,0.007412,-5.000000,-0.002502,558.619967,538.810646,488.949273,432.364115,407.271185,432.186866,488.727628,538.668424,
1.184198,-0.742970,0.000932,2.114104,-0.736156,0.000022,-0.474937,-0.000497,-0.532298,-0.000036,-0.000098,0.307827,-3.141543,-0.000552,-0.711755,0.000253,0.100874,-0.000452,10.883137,-0.000109,0.107827,0.000050,1.045693,-0.000339,-0.084618,0.000000,0.000000,2.000000,1.000000,,0.000000,0.000000,-0.000118,0.000000,0.000000,3.141590,-0.000115,-0.303352,-3.141543,3.500000,-0.001052,1.371636,,,,,,,,1.000000,,,1.000000,"0.000000,0.000000,3.000000,0.000000,0.000000,0.000000,0.000000",53.896414,0.005848,-5.000000,-0.011511,557.160857,535.901213,487.258129,428.732931,405.267531,428.591901,487.082650,535.788392,
1.203857,-0.728053,0.000933,2.110022,-0.680084,0.000043,-0.434734,-0.000054,-0.732360,-0.000032,-0.000088,0.291174,-3.141543,0.001190,-0.913640,-0.000113,0.107483,0.001028,10.845326,-0.000099,0.091174,0.000050,1.044508,-0.000345,-0.084963,0.000000,0.000000,2.000000,1.000000,,0.000000,0.000000,-0.000118,0.000000,0.000000,3.141590,-0.000072,-0.309518,-3.141543,3.500000,-0.000582,1.134491,,,,,,,,1.000000,,,1.000000,"0.000000,0.000000,3.000000,0.000000,0.000000,0.000000,0.000000",52.865236,-0.009085,-5.000000,-0.000913,552.298346,532.339245,481.463831,424.272186,398.556161,424.493505,481.739614,532.515652,
1.224294,-0.728053,0.000933,2.110022,-0.680084,0.000043,-0.434734,-0.000054,-0.732360,-0.000032,-0.000088,0.291174,-3.141543,0.001228,-1.035010,-0.000264,0.110402,0.001447,10.788735,-0.000083,0.079239,0.000049,1.033649,-0.000351,-0.081918,0.000000,0.000000,2.000000,1.000000,,0.000000,0.000000,-0.000117,0.000000,0.000000,3.141590,-0.000103,-0.306673,-3.141543,3.500000,-0.000907,1.242752,,,,,,,,1.000000,,,1.000000,"0.000000,0.000000,3.000000,0.000000,0.000000,0.000000,0.000000",52.910290,-0.010363,-5.000000,-0.000914,552.477214,532.512403,481.649611,424.489429,398.803991,424.741741,481.964052,532.713554,
1.244102,-0.714402,0.000932,2.106162,-0.627931,0.000057,-0.393956,0.000819,-0.933697,-0.000123,-0.000066,0.270479,-3.141545,-0.000132,-1.234375,-0.000216,0.114261,0.000636,10.671475,-0.000074,0.056144,0.000049,1.022734,-0.000356,-0.078643,0.000000,0.000000,2.000000,1.000000,,0.000000,0.000000,-0.000114,0.000000,0.000000,3.141590,-0.000064,-0.309802,-3.141545,3.500000,-0.000501,1.123750,,,,,,,,1.000000,,,1.000000,"0.000000,0.000000,3.000000,0.000000,0.000000,0.000000,0.000000",52.798478,-0.016067,-5.000000,0.001794,551.831352,532.205708,480.821934,424.104623,397.908774,424.496097,481.310192,532.517718,
1.263706,-0.701920,0.000932,2.102507,-0.580160,0.000064,-0.354269,0.000569,-1.133757,-0.000096,-0.000066,0.245824,-3.141544,-0.000256,-1.305721,0.000264,0.112005,-0.000123,10.746600,-0.000076,0.045824,0.000050,1.021643,-0.000362,-0.078906,0.000000,0.000000,2.000000,1.000000,,0.000000,0.000000,-0.000114,0.000000,0.000000,3.141590,-0.000091,-0.309129,-3.141545,3.500000,-0.000783,1.149170,,,,,,,,1.000000,,,1.000000,"0.000000,0.000000,3.000000,0.000000,0.000000,0.000000,0.000000",52.920677,-0.002232,-5.000000,0.002199,552.286645,532.874443,481.554443,424.943511,398.539946,424.997811,481.622201,532.917746,
1.283876,-0.701920,0.000932,2.102507,-0.580160,0.000064,-0.354269,0.000569,-1.133757,-0.000096,-0.000066,0.245824,-3.141544,-0.000256,-1.305721,0.000264,0.112005,-0.000123,10.746600,-0.000076,0.045824,0.000050,1.012547,-0.000367,-0.076223,0.000000,0.000000,2.000000,1.000000,,0.000000,0.000000,-0.000127,0.000000,0.000000,3.141590,-0.000072,-0.314191,-3.141544,3.500000,-0.000570,0.960724,,,,,,,,1.000000,,,1.000000,"0.000000,0.000000,3.000000,0.000000,0.000000,0.000000,0.000000",51.964209,0.007835,-5.000000,-0.011690,549.516492,527.940649,478.528667,418.739948,394.692191,418.546477,478.289259,527.787209,
1.305596,-0.701920,0.000932,2.102507,-0.580160,0.000064,-0.354269,0.000569,-1.133757,-0.000096,-0.000066,0.245824,-3.141544,-0.000256,-1.305721,0.000264,0.112005,-0.000123,10.746600,-0.000076,0.045824,0.000050,1.011637,-0.000373,-0.076537,0.000000,0.000000,2.000000,1.000000,,0.000000,0.000000,-0.000116,0.000000,0.000000,3.141590,-0.000111,-0.310724,-3.141544,3.500000,-0.000982,1.089140,,,,,,,,1.000000,,,1.000000,"0.000000,0.000000,3.000000,0.000000,0.000000,0.000000,0.000000",52.006171,0.003058,-5.000000,-0.011692,549.684060,528.068036,478.648151,418.900545,394.925457,418.825059,478.554731,528.008157,
1.326147,-0.701920,0.000932,2.102507,-0.580160,0.000064,-0.354269,0.000569,-1.133757,-0.000096,-0.000066,0.245824,-3.141544,0.000064,-1.408405,-0.000064,0.116177,0.001101,10.648447,-0.000076,0.029342,0.000051,1.011546,-0.000378,-0.077054,0.000000,0.000000,2.000000,1.000000,,0.000000,0.000000,-0.000116,0.000000,0.000000,3.141590,-0.000113,-0.310461,-3.141544,3.500000,-0.001007,1.098990,,,,,,,,1.000000,,,1.000000,"0.000000,0.000000,3.000000,0.000000,0.000000,0.000000,0.000000",52.006171,0.003058,-5.000000,-0.011692,549.684060,528.068036,478.648151,418.900545,394.925457,418.825059,478.554731,528.008157,
1.346957,-0.690500,0.000932,2.099074,-0.537224,0.000073,-0.315942,0.000065,-1.321094,-0.000072,-0.000063,0.217635,-3.141544,0.000516,-1.481671,-0.000216,0.119659,-0.000373,10.585030,-0.000073,0.017635,0.000050,1.011537,-0.000384,-0.077741,0.000000,0.000000,2.000000,1.000000,,0.000000,0.000000,-0.000116,0.000000,0.000000,3.141590,-0.000113,-0.310461,-3.141544,3.500000,-0.001007,1.098990,,,,,,,,1.000000,,,1.000000,"0.000000,0.000000,3.000000,0.000000,0.000000,0.000000,0.000000",52.700838,-0.001821,-5.000000,-0.002265,551.745996,531.627594,480.940537,423.378926,397.790391,423.423386,480.995883,531.663002,
1.370888,-0.690500,0.000932,2.099074,-0.537224,0.000073,-0.315942,0.000065,-1.321094,-0.000072,-0.000063,0.217635,-3.141544,0.000867,-1.595063,-0.000069,0.123282,-0.000134,10.557483,-0.000065,-0.001051,0.000050,1.003314,-0.000391,-0.075383,0.000000,0.000000,2.000000,1.000000,,0.000000,0.000000,-0.000115,0.000000,0.000000,3.141590,-0.000107,-0.314255,-3.141544,3.500000,-0.000921,0.958400,,,,,,,,1.000000,,,1.000000,"0.000000,0.000000,3.000000,0.000000,0.000000,0.000000,0.000000",51.946205,-0.005827,-3.913972,0.002144,533.736633,518.085259,477.045754,432.999392,412.844838,433.138477,477.224268,518.201508,
1.389270,-0.690500,0.000932,2.099074,-0.537224,0.000073,-0.315942,0.000065,-1.321094,-0.000072,-0.000063,0.217635,-3.141544,0.000867,-1.595063,-0.000069,0.123282,-0.000134,10.557483,-0.000065,-0.001051,0.000050,1.002491,-0.000395,-0.075500,0.000000,0.000000,2.000000,1.000000,,0.000000,0.000000,-0.000115,0.000000,0.000000,3.141590,-0.000133,-0.311693,-3.141544,3.500000,-0.001201,1.052972,,,,,,,,1.000000,,,1.000000,"0.000000,0.000000,3.000000,0.000000,0.000000,0.000000,0.000000",52.435400,-0.010811,-1.605382,-0.002099,503.608081,496.277588,479.577463,461.626635,454.625210,461.868684,479.906905,496.502745,
1.410700,-0.680015,0.000931,2.095852,-0.499526,0.000084,-0.279270,0.000498,-1.501715,-0.000111,-0.000046,0.185755,-3.141545,0.001212,-1.666863,0.000019,0.126006,-0.001166,10.529798,-0.000056,-0.014245,0.000050,1.002409,-0.000400,-0.076024,0.000000,0.000000,2.000000,1.000000,,0.000000,0.000000,-0.000114,0.000000,0.000000,3.141590,-0.000083,-0.318042,-3.141545,3.500000,-0.000667,0.821251,,,,,,,,1.000000,,,1.000000,"0.000000,0.000000,3.000000,0.000000,0.000000,0.000000,0.000000",52.463490,-0.010850,-1.598909,-0.002099,503.636426,496.333918,479.705266,461.832100,454.864676,462.074917,480.035812,496.559864,
1.427400,-0.680015,0.000931,2.095852,-0.499526,0.000084,-0.279270,0.000498,-1.501715,-0.000111,-0.000046,0.185755,-3.141545,0.001212,-1.666863,0.000019,0.126006,-0.001166,10.529798,-0.000056,-0.014245,0.000050,0.994852,-0.000405,-0.073706,0.000000,0.000000,2.000000,1.000000,,0.000000,0.000000,-0.000126,0.000000,0.000000,3.141590,-0.000099,-0.316474,-3.141545,3.500000,-0.000834,0.877661,,,,,,,,1.000000,,,1.000000,"0.000000,0.000000,3.000000,0.000000,0.000000,0.000000,0.000000",51.485794,-0.013382,-0.226983,-0.004635,479.076685,477.118058,475.395268,472.174366,472.099687,472.467268,475.806603,477.407927,
1.444433,-0.680015,0.000931,2.095852,-0.499526,0.000084,-0.279270,0.000498,-1.501715,-0.000111,-0.000046,0.185755,-3.141545,0.001212,-1.666863,0.000019,0.126006,-0.001166,10.529798,-0.000056,-0.014245,0.000050,0.994096,-0.000411,-0.074008,0.000000,0.000000,2.000000,1.000000,,0.000000,0.000000,-0.000114,0.000000,0.000000,3.141590,-0.000114,-0.313601,-3.141545,3.500000,-0.001003,0.982376,,,,,,,,1.000000,,,1.000000,"0.000000,0.000000,3.000000,0.000000,0.000000,0.000000,0.000000",51.496931,-0.013058,-0.504701,-0.004597,483.342575,480.174936,475.448332,469.183295,467.828994,469.470922,475.849657,480.455983,
1.464292,-0.680015,0.000931,2.095852,-0.499526,0.000084,-0.279270,0.000498,-1.501715,-0.000111,-0.000046,0.185755,-3.141545,0.001808,-1.747390,-0.000033,0.118338,-0.000084,10.623571,-0.000038,-0.034924,0.000052,0.994020,-0.000416,-0.074584,0.000000,0.000000,2.000000,1.000000,,0.000000,0.000000,-0.000114,0.000000,0.000000,3.141590,-0.000114,-0.313601,-3.141545,3.500000,-0.001003,0.982376,,,,,,,,1.000000,,,1.000000,"0.000000,0.000000,3.000000,0.000000,0.000000,0.000000,0.000000",52.190315,-0.020984,1.663488,-0.003094,452.594280,459.604712,478.385582,495.610903,503.465457,496.048412,479.026391,460.076462,
1.487908,-0.670331,0.000929,2.092867,-0.467544,0.000090,-0.244205,0.001207,-1.668914,-0.000009,-0.000014,0.150879,-3.141542,0.001368,-1.782770,0.000281,0.116676,0.000641,10.592870,-0.000025,-0.049121,0.000053,0.987040,-0.000421,-0.072415,0.000000,0.000000,2.000000,1.000000,,0.000000,0.000000,-0.000121,0.000000,0.000000,3.141590,-0.000103,-0.318492,-3.141542,3.500000,-0.000863,0.805176,,,,,,,,1.000000,,,1.000000,"0.000000,0.000000,3.000000,0.000000,0.000000,0.000000,0.000000",51.237086,-0.012754,3.394191,-0.016496,420.075038,433.758269,475.284184,508.255144,525.071402,508.514500,475.676318,434.062139,
1.515486,-0.670331,0.000929,2.092867,-0.467544,0.000090,-0.244205,0.001207,-1.668914,-0.000009,-0.000014,0.150879,-3.141542,0.000180,-1.794905,0.000129,0.105620,-0.000536,10.647264,-0.000018,-0.070658,0.000056,0.986342,-0.000426,-0.072702,0.000000,0.000000,2.000000,1.000000,,0.000000,0.000000,-0.000121,0.000000,0.000000,3.141590,-0.000115,-0.315836,-3.141542,3.500000,-0.000995,0.900756,,,,,,,,1.000000,,,1.000000,"0.000000,0.000000,3.000000,0.000000,0.000000,0.000000,0.000000",51.332587,-0.016753,2.492355,-0.012203,435.559653,445.196683,475.291651,499.731039,512.427473,500.077489,475.806655,445.585536,
1.526041,-0.661299,0.000928,2.090164,-0.441664,0.000091,-0.209593,0.000838,-1.766987,0.000185,-0.000011,0.115076,-3.141536,-0.000757,-1.777020,0.000007,0.100028,-0.001381,10.670323,-0.000023,-0.084924,0.000059,0.986272,-0.000433,-0.073304,0.000000,0.000000,2.000000,1.000000,,0.000000,0.000000,-0.000121,0.000000,0.000000,3.141590,-0.000126,-0.315399,-3.141542,3.500000,-0.001108,0.916608,,,,,,,,1.000000,,,1.000000,"0.000000,0.000000,3.000000,0.000000,0.000000,0.000000,0.000000",51.876984,0.000525,5.000000,-0.006496,393.664726,418.703302,477.569699,527.911583,548.778977,527.901300,477.553625,418.690337,
1.546509,-0.661299,0.000928,2.090164,-0.441664,0.000091,-0.209593,0.000838,-1.766987,0.000185,-0.000011,0.115076,-3.141536,-0.000634,-1.719196,0.000337,0.088909,0.001502,10.633390,-0.000033,-0.105808,0.000064,0.986265,-0.000437,-0.073784,0.000000,0.000000,2.000000,1.000000,,0.000000,0.000000,-0.000134,0.000000,0.000000,3.141590,-0.000123,-0.325024,-3.141536,3.500000,-0.001012,0.576553,,,,,,,,1.000000,,,1.000000,"0.000000,0.000000,3.000000,0.000000,0.000000,0.000000,0.000000",51.902623,-0.006893,3.990599,-0.008009,412.268146,430.881256,477.704304,517.848265,535.387070,517.985853,477.915198,431.046604,
1.566325,-0.652766,0.000927,2.087768,-0.421851,0.000092,-0.175913,-0.000205,-1.753962,0.000269,-0.000021,0.080720,-3.141530,0.000046,-1.671079,0.000239,0.082997,0.000888,10.517112,-0.000034,-0.119280,0.000066,0.979762,-0.000442,-0.071877,0.000000,0.000000,2.000000,1.000000,,0.000000,0.000000,-0.000134,0.000000,0.000000,3.141590,-0.000131,-0.323183,-3.141536,3.500000,-0.001100,0.640062,,,,,,,,1.000000,,,1.000000,"0.000000,0.000000,3.000000,0.000000,0.000000,0.000000,0.000000",51.934489,0.002506,4.605413,-0.004473,401.031235,424.064535,477.689828,524.452638,543.576891,524.403248,477.613145,424.003451,
1.584555,-0.652766,0.000927,2.087768,-0.421851,0.000092,-0.175913,-0.000205,-1.753962,0.000269,-0.000021,0.080720,-3.141530,0.000046,-1.671079,0.000239,0.082997,0.000888,10.517112,-0.000034,-0.119280,0.000066,0.972968,-0.000447,-0.070104,0.000000,0.000000,2.000000,1.000000,,0.000000,0.000000,-0.000148,0.000000,0.000000,3.141590,-0.000134,-0.329555,-3.141530,3.500000,-0.001078,0.423082,,,,,,,,1.000000,,,1.000000,"0.000000,0.000000,3.000000,0.000000,0.000000,0.000000,0.000000",50.694798,0.000167,4.839885,-0.014413,390.869586,413.675576,472.793867,520.764048,542.479644,520.760731,472.788701,413.671400,
1.606859,-0.652766,0.000927,2.087768,-0.421851,0.000092,-0.175913,-0.000205,-1.753962,0.000269,-0.000021,0.080720,-3.141530,0.000368,-1.580926,0.000007,0.075951,0.000720,10.373901,-0.000031,-0.138627,0.000067,0.972288,-0.000452,-0.070313,0.000000,0.000000,2.000000,1.000000,,0.000000,0.000000,-0.000148,0.000000,0.000000,3.141590,-0.000149,-0.323828,-3.141530,3.500000,-0.001257,0.617737,,,,,,,,1.000000,,,1.000000,"0.000000,0.000000,3.000000,0.000000,0.000000,0.000000,0.000000",50.597428,-0.009086,5.000000,-0.005282,386.341730,411.947701,471.402510,522.569701,543.549797,522.749423,471.684204,412.175661,
1.624481,-0.644577,0.000925,2.085626,-0.407750,0.000098,-0.145789,-0.000164,-1.648693,0.000147,-0.000017,0.049128,-3.141529,-0.000316,-1.513467,0.000011,0.070378,0.001622,10.263262,-0.000030,-0.150872,0.000067,0.972220,-0.000458,-0.070822,0.000000,0.000000,2.000000,1.000000,,0.000000,0.000000,-0.000148,0.000000,0.000000,3.141590,-0.000147,-0.322986,-3.141530,3.500000,-0.001239,0.646912,,,,,,,,1.000000,,,1.000000,"0.000000,0.000000,3.000000,0.000000,0.000000,0.000000,0.000000",50.665124,-0.009137,5.000000,-0.005283,386.725947,412.307137,471.716660,522.853095,543.822956,523.033727,471.999744,412.536175,
1.652424,-0.636593,0.000924,2.083666,-0.398948,0.000102,-0.121397,-0.000295,-1.491833,-0.000014,-0.000033,0.021047,-3.141529,-0.000937,-1.328896,-0.000038,0.059038,-0.000138,10.209503,-0.000046,-0.178953,0.000067,0.966317,-0.000463,-0.069471,0.000000,0.000000,2.000000,1.000000,,0.000000,0.000000,-0.000149,0.000000,0.000000,3.141590,-0.000130,-0.340567,-3.141529,3.500000,-0.000984,0.066553,,,,,,,,1.000000,,,1.000000,"0.000000,0.000000,3.000000,0.000000,0.000000,0.000000,0.000000",49.346432,0.001658,3.912395,-0.003915,408.918473,423.854651,460.241654,492.565772,506.218692,492.441514,460.053586,423.710243,
1.667474,-0.636593,0.000924,2.083666,-0.398948,0.000102,-0.121397,-0.000295,-1.491833,-0.000014,-0.000033,0.021047,-3.141529,-0.000937,-1.328896,-0.000038,0.059038,-0.000138,10.209503,-0.000046,-0.178953,0.000067,0.959979,-0.000467,-0.067988,0.000000,0.000000,2.000000,1.000000,,0.000000,0.000000,-0.000149,0.000000,0.000000,3.141590,-0.000140,-0.336346,-3.141529,3.500000,-0.001101,0.200553,,,,,,,,1.000000,,,1.000000,"0.000000,0.000000,3.000000,0.000000,0.000000,0.000000,0.000000",48.200516,0.005288,3.923741,-0.004012,376.017884,402.359542,462.182893,513.801236,534.571154,513.752865,462.106850,402.297772,
1.684669,-0.636593,0.000924,2.083666,-0.398948,0.000102,-0.121397,-0.000295,-1.491833,-0.000014,-0.000033,0.021047,-3.141529,0.000065,-1.220239,-0.000136,0.053355,-0.000070,10.057254,-0.000051,-0.194017,0.000066,0.959345,-0.000472,-0.068306,0.000000,0.000000,2.000000,1.000000,,0.000000,0.000000,-0.000149,0.000000,0.000000,3.141590,-0.000149,-0.333274,-3.141529,3.500000,-0.001203,0.300155,,,,,,,,1.000000,,,1.000000,"0.000000,0.000000,3.000000,0.000000,0.000000,0.000000,0.000000",48.620486,0.002404,4.938107,-0.004012,376.017884,402.359542,462.182893,513.801236,534.571154,513.752865,462.106850,402.297772,
1.711546,-0.628698,0.000922,2.081842,-0.395002,0.000107,-0.102167,-0.000441,-1.312038,-0.000097,-0.000035,-0.003353,-3.141531,0.000561,-1.149083,-0.000146,0.050683,0.001886,9.965863,-0.000048,-0.203353,0.000066,0.959281,-0.000477,-0.068727,0.000000,0.000000,2.000000,1.000000,,0.000000,0.000000,-0.000149,0.000000,0.000000,3.141590,-0.000147,-0.335697,-3.141531,3.500000,-0.001180,0.221451,,,,,,,,1.000000,,,1.000000,"0.000000,0.000000,3.000000,0.000000,0.000000,0.000000,0.000000",49.623913,-0.023038,3.390586,-0.000513,410.030701,426.986076,466.212568,502.413803,516.968775,502.887619,466.934397,427.543491,
1.725467,-0.628698,0.000922,2.081842,-0.395002,0.000107,-0.102167,-0.000441,-1.312038,-0.000097,-0.000035,-0.003353,-3.141531,0.000236,-1.047986,-0.000035,0.048813,-0.001538,9.989234,-0.000044,-0.216312,0.000065,0.953590,-0.000483,-0.067662,0.000000,0.000000,2.000000,1.000000,,0.000000,0.000000,-0.000145,0.000000,0.000000,3.141590,-0.000157,-0.331796,-3.141531,3.500000,-0.001293,0.348668,,,,,,,,1.000000,,,1.000000,"0.000000,0.000000,3.000000,0.000000,0.000000,0.000000,0.000000",48.872702,-0.010195,3.744730,-0.000888,399.604985,418.883232,462.901697,502.879543,518.815856,503.089081,463.223548,419.134765,
1.753837,-0.628698,0.000922,2.081842,-0.395002,0.000107,-0.102167,-0.000441,-1.312038,-0.000097,-0.000035,-0.003353,-3.141531,0.000236,-1.047986,-0.000035,0.048813,-0.001538,9.989234,-0.000044,-0.216312,0.000065,0.953021,-0.000489,-0.068054,0.000000,0.000000,2.000000,1.000000,,0.000000,0.000000,-0.000145,0.000000,0.000000,3.141590,-0.000152,-0.329996,-3.141531,3.500000,-0.001255,0.408384,,,,,,,,1.000000,,,1.000000,"0.000000,0.000000,3.000000,0.000000,0.000000,0.000000,0.000000",49.502558,-0.007691,3.694600,-0.003972,404.268817,422.511589,466.187610,504.880426,521.011861,505.037877,466.428717,422.699723,
1.763675,-0.620792,0.000920,2.080091,-0.395397,0.000114,-0.087382,-0.000032,-1.134421,-0.000107,-0.000034,-0.024330,-3.141532,-0.000582,-0.986852,-0.000000,0.046393,-0.001169,9.930292,-0.000047,-0.224330,0.000065,0.952964,-0.000494,-0.068520,0.000000,0.000000,2.000000,1.000000,,0.000000,0.000000,-0.000145,0.000000,0.000000,3.141590,-0.000149,-0.334008,-3.141532,3.500000,-0.001206,0.276175,,,,,,,,1.000000,,,1.000000,"0.000000,0.000000,3.000000,0.000000,0.000000,0.000000,0.000000",49.569194,-0.007626,3.720722,-0.003972,404.158026,422.538614,466.502027,505.437610,521.658450,505.593563,466.740942,422.725152,
1.784027,-0.620792,0.000920,2.080091,-0.395397,0.000114,-0.087382,-0.000032,-1.134421,-0.000107,-0.000034,-0.024330,-3.141532,-0.001370,-0.894872,-0.000029,0.043658,-0.000701,9.923696,-0.000063,-0.235437,0.000064,0.952964,-0.000494,-0.068520,0.000000,0.000000,2.000000,1.000000,,0.000000,0.000000,-0.000143,0.000000,0.000000,3.141590,-0.000155,-0.332306,-3.141532,3.500000,-0.001270,0.331885,,,,,,,,1.000000,,,1.000000,"0.000000,0.000000,3.000000,0.000000,0.000000,0.000000,0.000000",49.352628,0.009178,3.276513,-0.004015,410.963584,427.026259,465.750383,500.095412,514.477824,499.905650,465.462220,426.804011,
1.805026,-0.612794,0.000918,2.078393,-0.399628,0.000119,-0.075934,-0.000699,-0.971930,-0.000115,-0.000063,-0.042231,-3.141534,-0.000617,-0.752684,0.000105,0.040241,-0.000741,9.952897,-0.000088,-0.251574,0.000063,0.940939,-0.000502,-0.066167,0.000000,0.000000,2.000000,1.000000,,0.000000,0.000000,-0.000138,0.000000,0.000000,3.141590,-0.000165,-0.331386,-3.141534,3.500000,-0.001378,0.362229,,,,,,,,1.000000,,,1.000000,"0.000000,0.000000,3.000000,0.000000,0.000000,0.000000,0.000000",49.163665,0.011671,2.866812,0.004491,416.355201,431.837613,464.145645,495.738734,507.118796,495.495292,463.777907,431.558126,
1.831102,-0.612794,0.000918,2.078393,-0.399628,0.000119,-0.075934,-0.000699,-0.971930,-0.000115,-0.000063,-0.042231,-3.141534,-0.000617,-0.752684,0.000105,0.040241,-0.000741,9.952897,-0.000088,-0.251574,0.000063,0.940306,-0.000507,-0.066405,0.000000,0.000000,2.000000,1.000000,,0.000000,0.000000,-0.000138,0.000000,0.000000,3.141590,-0.000161,-0.330713,-3.141534,3.500000,-0.001346,0.384529,,,,,,,,1.000000,,,1.000000,"0.000000,0.000000,3.000000,0.000000,0.000000,0.000000,0.000000",49.484592,0.002521,2.693116,-0.007849,422.272283,434.254418,466.605234,494.225441,507.004233,494.172700,466.526236,434.194393,
1.843761,-0.604633,0.000916,2.076742,-0.407199,0.000128,-0.066089,-0.001088,-0.824220,-0.000092,-0.000078,-0.057299,-3.141534,-0.000103,-0.703234,-0.000158,0.038045,-0.000970,9.922402,-0.000091,-0.257299,0.000064,0.940242,-0.000512,-0.066837,0.000000,0.000000,2.000000,1.000000,,0.000000,0.000000,-0.000138,0.000000,0.000000,3.141590,-0.000168,-0.330584,-3.141534,3.500000,-0.001414,0.388788,,,,,,,,1.000000,,,1.000000,"0.000000,0.000000,3.000000,0.000000,0.000000,0.000000,0.000000",49.524477,0.002604,2.708974,-0.007851,422.205043,434.267937,466.794067,494.568916,507.405330,494.514481,466.712509,434.205943,
1.865912,-0.604633,0.000916,2.076742,-0.407199,0.000128,-0.066089,-0.001088,-0.824220,-0.000092,-0.000078,-0.057299,-3.141534,-0.000103,-0.703234,-0.000158,0.038045,-0.000970,9.922402,-0.000091,-0.257299,0.000064,0.940242,-0.000512,-0.066837,0.000000,0.000000,2.000000,1.000000,,0.000000,0.000000,-0.000138,0.000000,0.000000,3.141590,-0.000166,-0.330387,-3.141534,3.500000,-0.001400,0.395365,,,,,,,,1.000000,,,1.000000,"0.000000,0.000000,3.000000,0.000000,0.000000,0.000000,0.000000",49.524477,0.002604,2.709655,-0.007852,422.193391,434.259724,466.794187,494.575923,507.415233,494.521480,466.712614,434.197718,
1.906743,-0.596250,0.000914,2.075136,-0.417620,0.000143,-0.057136,-0.000344,-0.693645,-0.000033,-0.000076,-0.069976,-3.141533,0.000023,-0.589325,-0.000145,0.038865,-0.000641,9.923028,-0.000089,-0.269976,0.000064,0.933772,-0.000521,-0.066126,0.000000,0.000000,2.000000,1.000000,,0.000000,0.000000,-0.000139,0.000000,0.000000,3.141590,-0.000163,-0.332558,-3.141534,3.500000,-0.001356,0.323588,,,,,,,,1.000000,,,1.000000,"0.000000,0.000000,3.000000,0.000000,0.000000,0.000000,0.000000",49.255939,-0.002376,2.432086,-0.000227,432.144252,441.685240,465.821364,487.837737,497.406278,487.970048,466.017293,441.831372,
1.925715,-0.596250,0.000914,2.075136,-0.417620,0.000143,-0.057136,-0.000344,-0.693645,-0.000033,-0.000076,-0.069976,-3.141533,-0.000864,-0.526416,0.000062,0.034333,0.001541,9.927469,-0.000095,-0.276541,0.000064,0.927068,-0.000530,-0.065441,0.000000,0.000000,2.000000,1.000000,,0.000000,0.000000,-0.000139,0.000000,0.000000,3.141590,-0.000153,-0.332626,-3.141533,3.500000,-0.001256,0.321361,,,,,,,,1.000000,,,1.000000,"0.000000,0.000000,3.000000,0.000000,0.000000,0.000000,0.000000",49.280632,-0.003051,2.007238,-0.000632,432.263812,441.937950,464.919885,486.631349,495.518107,486.696156,465.015804,442.009309,
1.946035,-0.587596,0.000911,2.073572,-0.430454,0.000158,-0.048867,-0.000280,-0.580477,-0.000029,-0.000089,-0.080518,-3.141533,-0.000846,-0.487553,0.000041,0.035375,-0.000742,9.921288,-0.000102,-0.280518,0.000065,0.920776,-0.000533,-0.064426,0.000000,0.000000,2.000000,1.000000,,0.000000,0.000000,-0.000140,0.000000,0.000000,3.141590,-0.000170,-0.330864,-3.141533,3.500000,-0.001434,0.379507,,,,,,,,1.000000,,,1.000000,"0.000000,0.000000,3.000000,0.000000,0.000000,0.000000,0.000000",49.559753,0.005138,1.870428,-0.006667,436.546435,444.449920,466.895085,486.012366,495.236340,485.903066,466.734187,444.330397,
1.978748,-0.587596,0.000911,2.073572,-0.430454,0.000158,-0.048867,-0.000280,-0.580477,-0.000029,-0.000089,-0.080518,-3.141533,-0.000846,-0.487553,0.000041,0.035375,-0.000742,9.921288,-0.000102,-0.280518,0.000065,0.920146,-0.000539,-0.064735,0.000000,0.000000,2.000000,1.000000,,0.000000,0.000000,-0.000140,0.000000,0.000000,3.141590,-0.000163,-0.331847,-3.141533,3.500000,-0.001357,0.347001,,,,,,,,1.000000,,,1.000000,"0.000000,0.000000,3.000000,0.000000,0.000000,0.000000,0.000000",49.268744,0.006126,1.614024,-0.006119,439.317300,446.055240,465.493379,482.012703,490.091185,481.881297,465.300950,445.913238,
1.983462,-0.587596,0.000911,2.073572,-0.430454,0.000158,-0.048867,-0.000280,-0.580477,-0.000029,-0.000089,-0.080518,-3.141533,-0.000846,-0.487553,0.000041,0.035375,-0.000742,9.921288,-0.000102,-0.280518,0.000065,0.920083,-0.000545,-0.065193,0.000000,0.000000,2.000000,1.000000,,0.000000,0.000000,-0.000140,0.000000,0.000000,3.141590,-0.000162,-0.331530,-3.141533,3.500000,-0.001347,0.357473,,,,,,,,1.000000,,,1.000000,"0.000000,0.000000,3.000000,0.000000,0.000000,0.000000,0.000000",49.418362,0.003542,1.877371,-0.006071,435.662889,443.707490,466.152931,485.481385,494.662905,485.405949,466.041830,443.624951,
2.008817,-0.587596,0.000911,2.073572,-0.430454,0.000158,-0.048867,-0.000280,-0.580477,-0.000029,-0.000089,-0.080518,-3.141533,-0.000761,-0.434014,-0.000063,0.037692,0.001047,9.928491,-0.000111,-0.285934,0.000064,0.920077,-0.000550,-0.065602,0.000000,0.000000,2.000000,1.000000,,0.000000,0.000000,-0.000141,0.000000,0.000000,3.141590,-0.000170,-0.331259,-3.141533,3.500000,-0.001424,0.366433,,,,,,,,1.000000,,,1.000000,"0.000000,0.000000,3.000000,0.000000,0.000000,0.000000,0.000000",49.521600,0.004933,1.433228,-0.003070,443.284065,449.646443,466.395474,481.471530,488.266809,481.365594,466.240820,449.533007,
2.031411,-0.587596,0.000911,2.073572,-0.430454,0.000158,-0.048867,-0.000280,-0.580477,-0.000029,-0.000089,-0.080518,-3.141533,-0.000761,-0.434014,-0.000063,0.037692,0.001047,9.928491,-0.000111,-0.285934,0.000064,0.920077,-0.000555,-0.066037,0.000000,0.000000,2.000000,1.000000,,0.000000,0.000000,-0.000140,0.000000,0.000000,3.141590,-0.000168,-0.331129,-3.141533,3.500000,-0.001413,0.370736,,,,,,,,1.000000,,,1.000000,"0.000000,0.000000,3.000000,0.000000,0.000000,0.000000,0.000000",49.521600,0.004934,1.433501,-0.003071,443.279638,449.643248,466.395555,481.474402,488.270957,481.368448,466.240873,449.529791,
2.055120,-0.578629,0.000908,2.072045,-0.445322,0.000174,-0.041276,-0.000630,-0.481003,-0.000054,-0.000102,-0.089216,-3.141534,-0.000533,-0.402764,-0.000088,0.035229,-0.000053,9.928395,-0.000114,-0.289216,0.000064,0.920076,-0.000562,-0.066575,0.000000,0.000000,2.000000,1.000000,,0.000000,0.000000,-0.000140,0.000000,0.000000,3.141590,-0.000168,-0.331129,-3.141533,3.500000,-0.001413,0.370736,,,,,,,,1.000000,,,1.000000,"0.000000,0.000000,3.000000,0.000000,0.000000,0.000000,0.000000",49.521600,0.004935,1.433855,-0.003071,443.273844,449.639163,466.395606,481.478178,488.276280,481.372199,466.240887,449.525678,
2.072597,-0.578629,0.000908,2.072045,-0.445322,0.000174,-0.041276,-0.000630,-0.481003,-0.000054,-0.000102,-0.089216,-3.141534,-0.000533,-0.402764,-0.000088,0.035229,-0.000053,9.928395,-0.000114,-0.289216,0.000064,0.913621,-0.000564,-0.065579,0.000000,0.000000,2.000000,1.000000,,0.000000,0.000000,-0.000141,0.000000,0.000000,3.141590,-0.000183,-0.332820,-3.141534,3.500000,-0.001541,0.315002,,,,,,,,1.000000,,,1.000000,"0.000000,0.000000,3.000000,0.000000,0.000000,0.000000,0.000000",49.521600,0.001544,1.191931,-0.002076,447.153701,452.463423,466.254674,478.922833,484.556769,478.889501,466.206257,452.428141,
2.100274,-0.578629,0.000908,2.072045,-0.445322,0.000174,-0.041276,-0.000630,-0.481003,-0.000054,-0.000102,-0.089216,-3.141534,0.000162,-0.361108,-0.000235,0.032902,0.000369,9.939030,-0.000114,-0.293711,0.000063,0.912975,-0.000569,-0.065856,0.000000,0.000000,2.000000,1.000000,,0.000000,0.000000,-0.000138,0.000000,0.000000,3.141590,-0.000191,-0.331746,-3.141534,3.500000,-0.001630,0.350328,,,,,,,,1.000000,,,1.000000,"0.000000,0.000000,3.000000,0.000000,0.000000,0.000000,0.000000",49.279220,-0.003837,0.256966,-0.002331,449.531412,454.783060,465.179917,476.753619,480.645268,476.986184,465.516927,455.026854,
2.107775,-0.569317,0.000905,2.070555,-0.461875,0.000192,-0.034114,-0.000284,-0.398288,-0.000101,-0.000100,-0.096449,-3.141535,0.000014,-0.303314,0.000026,0.035893,-0.000813,9.920807,-0.000112,-0.300216,0.000062,0.906206,-0.000572,-0.064934,0.000000,0.000000,2.000000,1.000000,,0.000000,0.000000,-0.000135,0.000000,0.000000,3.141590,-0.000185,-0.331531,-3.141534,3.500000,-0.001577,0.357419,,,,,,,,1.000000,,,1.000000,"0.000000,0.000000,3.000000,0.000000,0.000000,0.000000,0.000000",49.463672,-0.004798,1.115718,0.001972,447.742566,453.348078,465.525020,478.113644,482.798065,478.217381,465.675673,453.457480,
2.126837,-0.569317,0.000905,2.070555,-0.461875,0.000192,-0.034114,-0.000284,-0.398288,-0.000101,-0.000100,-0.096449,-3.141535,0.000014,-0.303314,0.000026,0.035893,-0.000813,9.920807,-0.000112,-0.300216,0.000062,0.906206,-0.000572,-0.064934,0.000000,0.000000,2.000000,1.000000,,0.000000,0.000000,-0.000135,0.000000,0.000000,3.141590,-0.000195,-0.331692,-3.141534,3.500000,-0.001668,0.352113,,,,,,,,1.000000,,,1.000000,"0.000000,0.000000,3.000000,0.000000,0.000000,0.000000,0.000000",49.449964,-0.003835,1.013779,0.000276,449.363231,453.891096,464.529351,475.046425,479.288071,475.098029,464.603973,453.945105,
2.148037,-0.559632,0.000901,2.069099,-0.479823,0.000212,-0.027306,0.000031,-0.332643,-0.000089,-0.000100,-0.102522,-3.141536,-0.000187,-0.257220,-0.000150,0.037284,-0.000742,9.907221,-0.000115,-0.305710,0.000060,0.898488,-0.000580,-0.064290,0.000000,0.000000,2.000000,1.000000,,0.000000,0.000000,-0.000133,0.000000,0.000000,3.141590,-0.000148,-0.333699,-3.141536,3.500000,-0.001210,0.286263,,,,,,,,1.000000,,,1.000000,"0.000000,0.000000,3.000000,0.000000,0.000000,0.000000,0.000000",49.391982,-0.000512,0.801137,-0.003519,462.305092,462.454265,464.759444,465.734317,466.938130,465.547923,464.495290,462.266548,
2.187543,-0.549551,0.000897,2.067666,-0.498947,0.000230,-0.021034,-0.000092,-0.280637,-0.000102,-0.000104,-0.107675,-3.141538,0.000024,-0.241935,-0.000163,0.036422,-0.001046,9.896904,-0.000115,-0.307675,0.000059,0.897784,-0.000585,-0.064564,0.000000,0.000000,2.000000,1.000000,,0.000000,0.000000,-0.000133,0.000000,0.000000,3.141590,-0.000166,-0.333482,-3.141536,3.500000,-0.001385,0.293329,,,,,,,,1.000000,,,1.000000,"0.000000,0.000000,3.000000,0.000000,0.000000,0.000000,0.000000",49.175276,0.000707,0.753150,-0.003520,455.137251,458.046786,464.577660,471.287637,473.867697,471.314425,464.616087,458.074348,
2.205452,-0.549551,0.000897,2.067666,-0.498947,0.000230,-0.021034,-0.000092,-0.280637,-0.000102,-0.000104,-0.107675,-3.141538,0.000217,-0.221562,-0.000008,0.036322,0.000434,9.893802,-0.000115,-0.310412,0.000058,0.889722,-0.000592,-0.063947,0.000000,0.000000,2.000000,1.000000,,0.000000,0.000000,-0.000128,0.000000,0.000000,3.141590,-0.000162,-0.333386,-3.141538,3.500000,-0.001359,0.296464,,,,,,,,1.000000,,,1.000000,"0.000000,0.000000,3.000000,0.000000,0.000000,0.000000,0.000000",49.380355,-0.002869,0.666942,0.000027,454.784026,457.884629,465.334669,472.702630,475.739504,472.765366,465.424786,457.949395,
2.223981,-0.539056,0.000892,2.066250,-0.519068,0.000248,-0.015304,-0.000064,-0.239728,-0.000129,-0.000102,-0.112111,-3.141540,0.000036,-0.209426,-0.000306,0.037869,-0.000953,9.890254,-0.000114,-0.312111,0.000057,0.889649,-0.000598,-0.064334,0.000000,0.000000,2.000000,1.000000,,0.000000,0.000000,-0.000128,0.000000,0.000000,3.141590,-0.000170,-0.333557,-3.141540,3.500000,-0.001440,0.290904,,,,,,,,1.000000,,,1.000000,"0.000000,0.000000,3.000000,0.000000,0.000000,0.000000,0.000000",49.158838,-0.001380,0.331274,0.004319,458.705494,461.004839,463.932457,468.374586,469.144190,468.405048,463.975944,461.035788,
2.243959,-0.539056,0.000892,2.066250,-0.519068,0.000248,-0.015304,-0.000064,-0.239728,-0.000129,-0.000102,-0.112111,-3.141540,0.000081,-0.183260,-0.000025,0.037361,-0.000936,9.874009,-0.000113,-0.315978,0.000059,0.882085,-0.000600,-0.063470,0.000000,0.000000,2.000000,1.000000,,0.000000,0.000000,-0.000124,0.000000,0.000000,3.141590,-0.000184,-0.332392,-3.141540,3.500000,-0.001578,0.329063,,,,,,,,1.000000,,,1.000000,"0.000000,0.000000,3.000000,0.000000,0.000000,0.000000,0.000000",49.225952,-0.004651,0.498214,-0.008178,457.485564,458.292271,465.304487,469.396104,473.137903,469.498526,465.450589,458.397174,
2.264734,-0.528130,0.000887,2.064846,-0.540044,0.000267,-0.009952,0.000058,-0.207580,-0.000041,-0.000101,-0.115978,-3.141539,0.000081,-0.183260,-0.000025,0.037361,-0.000936,9.874009,-0.000113,-0.315978,0.000059,0.881329,-0.000605,-0.063751,0.000000,0.000000,2.000000,1.000000,,0.000000,0.000000,-0.000124,0.000000,0.000000,3.141590,-0.000173,-0.333243,-3.141539,3.500000,-0.001466,0.301141,,,,,,,,1.000000,,,1.000000,"0.000000,0.000000,3.000000,0.000000,0.000000,0.000000,0.000000",49.248476,0.005179,0.233503,-0.003703,461.403642,461.884173,465.169339,467.081153,468.743322,466.966524,465.006569,461.768254,
2.283924,-0.528130,0.000887,2.064846,-0.540044,0.000267,-0.009952,0.000058,-0.207580,-0.000041,-0.000101,-0.115978,-3.141539,-0.000108,-0.169167,-0.000160,0.038800,0.000084,9.868542,-0.000114,-0.318062,0.000057,0.873387,-0.000607,-0.062848,0.000000,0.000000,2.000000,1.000000,,0.000000,0.000000,-0.000126,0.000000,0.000000,3.141590,-0.000185,-0.332265,-3.141539,3.500000,-0.001584,0.333241,,,,,,,,1.000000,,,1.000000,"0.000000,0.000000,3.000000,0.000000,0.000000,0.000000,0.000000",49.356264,-0.002292,0.505985,0.000162,457.235950,459.601666,465.218252,470.845247,473.136697,470.895561,465.290260,459.653211,
2.303593,-0.516760,0.000882,2.063446,-0.561766,0.000286,-0.004953,-0.000059,-0.181209,-0.000044,-0.000104,-0.119360,-3.141541,-0.000126,-0.147356,-0.000109,0.039675,0.000105,9.866722,-0.000118,-0.321179,0.000055,0.864406,-0.000608,-0.061843,0.000000,0.000000,2.000000,1.000000,,0.000000,0.000000,-0.000122,0.000000,0.000000,3.141590,-0.000166,-0.331924,-3.141541,3.500000,-0.001413,0.344475,,,,,,,,1.000000,,,1.000000,"0.000000,0.000000,3.000000,0.000000,0.000000,0.000000,0.000000",49.409541,-0.000772,0.481061,-0.001189,458.010808,460.032119,465.612583,470.718389,473.116088,470.735348,465.636827,460.049471,
2.327669,-0.504933,0.000876,2.062046,-0.584141,0.000304,-0.000283,-0.000182,-0.158223,-0.000124,-0.000108,-0.122307,-3.141543,-0.000058,-0.138896,-0.000095,0.038834,0.001196,9.877635,-0.000119,-0.322307,0.000054,0.863508,-0.000613,-0.062103,0.000000,0.000000,2.000000,1.000000,,0.000000,0.000000,-0.000117,0.000000,0.000000,3.141590,-0.000125,-0.317335,-3.141543,3.332656,-0.001045,0.337108,,,,,,,,1.000000,,,1.000000,"0.000000,0.000000,3.000000,0.000000,0.000000,0.000000,0.000000",48.834187,-0.000266,2.206352,-0.002244,426.750304,437.251354,462.996552,486.627657,496.612094,486.633310,463.004953,437.257645,
2.344513,-0.504933,0.000876,2.062046,-0.584141,0.000304,-0.000283,-0.000182,-0.158223,-0.000124,-0.000108,-0.122307,-3.141543,-0.000065,-0.123778,-0.000120,0.038257,0.000906,9.898814,-0.000119,-0.323863,0.000053,0.854902,-0.000614,-0.061198,0.000000,0.000000,2.000000,1.000000,,0.000000,0.000000,-0.000117,0.000000,0.000000,3.141590,-0.000157,-0.332343,-3.141543,3.500000,-0.001337,0.330669,,,,,,,,1.000000,,,1.000000,"0.000000,0.000000,3.000000,0.000000,0.000000,0.000000,0.000000",49.129723,0.000753,1.257671,-0.001461,444.090092,449.852470,464.340889,477.881146,483.721921,477.864856,464.317182,449.835165,
2.388606,-0.492637,0.000870,2.060650,-0.607091,0.000323,0.004352,-0.000127,-0.135354,-0.000111,-0.000109,-0.124774,-3.141545,-0.000093,-0.110789,-0.000101,0.038838,-0.000173,9.897897,-0.000120,-0.324774,0.000052,0.854042,-0.000619,-0.061459,0.000000,0.000000,2.000000,1.000000,,0.000000,0.000000,-0.000117,0.000000,0.000000,3.141590,-0.000176,-0.331608,-3.141543,3.500000,-0.001515,0.354891,,,,,,,,1.000000,,,1.000000,"0.000000,0.000000,3.000000,0.000000,0.000000,0.000000,0.000000",49.452678,-0.001783,0.409637,-0.000717,459.312959,461.069943,465.758163,470.164870,472.170604,470.204081,465.814134,461.109927,
2.406843,-0.492637,0.000870,2.060650,-0.607091,0.000323,0.004352,-0.000127,-0.135354,-0.000111,-0.000109,-0.124774,-3.141545,-0.000025,-0.095469,0.000106,0.037804,0.000319,9.912841,-0.000120,-0.325976,0.000052,0.844209,-0.000624,-0.060764,0.000000,0.000000,2.000000,1.000000,,0.000000,0.000000,-0.000113,0.000000,0.000000,3.141590,-0.000135,-0.295104,-3.141545,3.084464,-0.001163,0.336933,,,,,,,,1.000000,,,1.000000,"0.000000,0.000000,3.000000,0.000000,0.000000,0.000000,0.000000",49.412642,-0.003088,0.204773,-0.001573,462.447914,463.080797,465.624782,467.629807,468.876402,467.698063,465.721715,463.149724,
2.427644,-0.492637,0.000870,2.060650,-0.607091,0.000323,0.004352,-0.000127,-0.135354,-0.000111,-0.000109,-0.124774,-3.141545,-0.000025,-0.095469,0.000106,0.037804,0.000319,9.912841,-0.000120,-0.325976,0.000052,0.844119,-0.000629,-0.061109,0.000000,0.000000,2.000000,1.000000,,0.000000,0.000000,-0.000113,0.000000,0.000000,3.141590,-0.000149,-0.317158,-3.141545,3.330708,-0.001281,0.337227,,,,,,,,1.000000,,,1.000000,"0.000000,0.000000,3.000000,0.000000,0.000000,0.000000,0.000000",48.784765,0.008446,5.000000,-0.001293,375.474924,402.815235,462.815423,515.401104,535.880461,515.231663,462.548561,402.598413,
