time_s,odom_pos_x,odom_pos_y,odom_pos_z,odom_vel_x,odom_vel_y,odom_vel_z,odom_roll,odom_pitch,odom_yaw,imu_ang_vel_x,imu_ang_vel_y,imu_ang_vel_z,imu_roll,imu_pitch,imu_yaw,vel_sp_x,vel_sp_y,vel_sp_z,wp_cmd_x,wp_cmd_y,wp_cmd_z,wp_enable,rate_sp_x,rate_sp_y,rate_sp_z,att_cmd_roll,att_cmd_pitch,att_cmd_yaw,att_sp_roll,att_sp_pitch,att_sp_yaw,accel_sp_x,accel_sp_y,accel_sp_z,cmd_rate_x,cmd_rate_y,cmd_rate_z,cmd_thrust,mixer_0,mixer_1,mixer_2,mixer_3,mode
0.463483,,,,,,,,,,,,,,,,,,,,,,,,,,,,,,,,,,,,,,,,,,,
0.482788,-0.273368,0.000489,2.208906,-0.767531,0.000179,-0.100476,0.000010,-0.047558,-3.141515,-0.000111,-0.251169,-0.000010,-0.000013,-0.245444,0.000094,,,,0.000000,0.000000,2.000000,1.000000,0.000000,0.000000,-0.000190,0.000000,0.000000,3.141590,-0.000109,-0.119819,-3.141515,1.240948,-0.001015,0.497206,,,,,47.748818,-0.002186,5.000000,-0.001318,
0.500655,-0.257872,0.000486,2.206038,-0.776266,0.000174,-0.105266,0.000009,-0.043294,-3.141517,0.000136,0.275770,0.000104,-0.000007,-0.243294,0.000081,,,,0.000000,0.000000,2.000000,1.000000,0.000000,0.000000,-0.000181,0.000000,0.000000,3.141590,-0.000123,-0.116334,-3.141517,1.204158,-0.001166,0.494163,,,,,47.721707,-0.005540,-3.651425,-0.009301,
0.520393,-0.242220,0.000484,2.203119,-0.784095,0.000171,-0.111722,0.000007,-0.036034,-3.141516,-0.000124,0.412296,0.000104,-0.000010,-0.236034,0.000082,,,,0.000000,0.000000,2.000000,1.000000,0.000000,0.000000,-0.000176,0.000000,0.000000,3.141590,-0.000131,-0.079543,-3.141516,0.824743,-0.001286,0.536681,,,,,47.745697,-0.007213,5.000000,-0.009171,
0.542776,-0.242220,0.000484,2.203119,-0.784095,0.000171,-0.111722,0.000007,-0.036034,-3.141516,-0.000300,0.491975,0.000115,-0.000013,-0.230474,0.000082,,,,0.000000,0.000000,2.000000,1.000000,0.000000,0.000000,-0.000179,0.000000,0.000000,3.141590,-0.000124,-0.065330,-3.141516,0.678353,-0.001229,0.558654,,,,,47.797773,-0.002763,4.564579,-0.009585,
0.561135,-0.226441,0.000482,2.200177,-0.790370,0.000169,-0.119166,0.000001,-0.026164,-3.141515,-0.000348,0.553697,0.000060,-0.000016,-0.226164,0.000082,,,,0.000000,0.000000,2.000000,1.000000,0.000000,0.000000,-0.000179,0.000000,0.000000,3.141590,-0.000126,-0.035132,-3.141515,0.364770,-0.001278,0.568465,,,,,47.770415,-0.002273,5.000000,-0.007978,
0.581788,-0.210573,0.000480,2.197197,-0.794559,0.000169,-0.128626,-0.000006,-0.013200,-3.141516,-0.000473,0.713627,0.000001,-0.000022,-0.213200,0.000081,,,,0.000000,0.000000,2.000000,1.000000,0.000000,0.000000,-0.000181,0.000000,0.000000,3.141590,-0.000127,-0.055418,-3.141516,0.571419,-0.001264,0.490600,,,,,47.597573,-0.000083,-5.000000,-0.009521,
0.600312,-0.210573,0.000480,2.197197,-0.794559,0.000169,-0.128626,-0.000006,-0.013200,-3.141516,-0.000488,0.792031,-0.000002,-0.000028,-0.203998,0.000081,,,,0.000000,0.000000,2.000000,1.000000,0.000000,0.000000,-0.000178,0.000000,0.000000,3.141590,-0.000124,-0.070541,-3.141516,0.727427,-0.001221,0.484970,,,,,47.474933,-0.000184,-0.129369,-0.006180,
0.620550,-0.194665,0.000478,2.194177,-0.796005,0.000170,-0.141019,-0.000015,0.002566,-3.141514,-0.000011,0.872038,0.000157,-0.000033,-0.187148,0.000085,,,,0.000000,0.000000,2.000000,1.000000,0.000000,0.000000,-0.000178,0.000000,0.000000,3.141590,-0.000125,-0.026503,-3.141514,0.274484,-0.001269,0.544091,,,,,47.645550,-0.024225,-5.000000,-0.004091,
0.640837,-0.178783,0.000475,2.191139,-0.794013,0.000175,-0.155029,-0.000015,0.020000,-3.141510,-0.000054,0.902786,0.000295,-0.000032,-0.180000,0.000087,,,,0.000000,0.000000,2.000000,1.000000,0.000000,0.000000,-0.000183,0.000000,0.000000,3.141590,-0.000119,-0.015157,-3.141510,0.157360,-0.001223,0.571235,,,,,47.625510,-0.003786,-2.826513,-0.015143,
0.662512,-0.162994,0.000473,2.188082,-0.788184,0.000182,-0.169754,-0.000017,0.038732,-3.141505,-0.000215,0.953331,0.000282,-0.000035,-0.161268,0.000091,,,,0.000000,0.000000,2.000000,1.000000,0.000000,0.000000,-0.000192,0.000000,0.000000,3.141590,-0.000123,-0.037911,-3.141510,0.392366,-0.001239,0.534597,,,,,47.625502,-0.005062,-2.414326,-0.012160,
0.680360,-0.162994,0.000473,2.188082,-0.788184,0.000182,-0.169754,-0.000017,0.038732,-3.141505,-0.001097,0.949537,0.000457,-0.000046,-0.149811,0.000096,,,,0.000000,0.000000,2.000000,1.000000,0.000000,0.000000,-0.000202,0.000000,0.000000,3.141590,-0.000114,-0.031379,-3.141505,0.325599,-0.001149,0.562996,,,,,47.739284,0.017227,-1.398531,-0.023104,
0.700341,-0.162994,0.000473,2.188082,-0.788184,0.000182,-0.169754,-0.000017,0.038732,-3.141505,-0.001097,0.949537,0.000457,-0.000046,-0.149811,0.000096,,,,0.000000,0.000000,2.000000,1.000000,0.000000,0.000000,-0.000202,0.000000,0.000000,3.141590,-0.000122,-0.043147,-3.141505,0.446239,-0.001219,0.525878,,,,,47.719376,0.007286,-2.913094,-0.020233,
0.720858,-0.147375,0.000471,2.185035,-0.778295,0.000190,-0.184315,-0.000038,0.057618,-3.141497,-0.001183,0.869350,0.000152,-0.000074,-0.131734,0.000101,,,,0.000000,0.000000,2.000000,1.000000,0.000000,0.000000,-0.000221,0.000000,0.000000,3.141590,-0.000128,-0.041848,-3.141497,0.434331,-0.001287,0.562592,,,,,47.755734,0.009225,4.485754,-0.011953,
0.740308,-0.132003,0.000468,2.181984,-0.764359,0.000202,-0.197921,-0.000063,0.074940,-3.141494,-0.001221,0.738070,0.000103,-0.000097,-0.115868,0.000102,,,,0.000000,0.000000,2.000000,1.000000,0.000000,0.000000,-0.000221,0.000000,0.000000,3.141590,-0.000111,-0.049979,-3.141494,0.521457,-0.001104,0.614790,,,,,48.013988,0.010301,-4.208449,-0.016083,
0.763039,-0.116945,0.000466,2.178894,-0.746839,0.000220,-0.210825,-0.000084,0.089674,-3.141494,-0.000899,0.677807,-0.000136,-0.000105,-0.110326,0.000101,,,,0.000000,0.000000,2.000000,1.000000,0.000000,0.000000,-0.000228,0.000000,0.000000,3.141590,-0.000080,-0.100126,-3.141494,1.050631,-0.000733,0.648011,,,,,48.349004,0.021579,-5.000000,-0.003829,
0.783661,-0.116945,0.000466,2.178894,-0.746839,0.000220,-0.210825,-0.000084,0.089674,-3.141494,-0.000767,0.585761,-0.000202,-0.000114,-0.102931,0.000099,,,,0.000000,0.000000,2.000000,1.000000,0.000000,0.000000,-0.000228,0.000000,0.000000,3.141590,-0.000088,-0.066979,-3.141494,0.702090,-0.000855,0.656496,,,,,48.301851,0.009218,-3.315970,-0.001893,
0.800257,-0.102258,0.000462,2.175742,-0.726476,0.000240,-0.222516,-0.000097,0.101358,-3.141497,0.000067,0.423824,-0.000128,-0.000118,-0.093183,0.000097,,,,0.000000,0.000000,2.000000,1.000000,0.000000,0.000000,-0.000228,0.000000,0.000000,3.141590,-0.000048,-0.118684,-3.141497,1.256973,-0.000383,0.731119,,,,,48.832670,0.007290,-5.000000,-0.006640,
0.821375,-0.087986,0.000459,2.172535,-0.704061,0.000260,-0.231657,-0.000099,0.109826,-3.141498,0.000022,0.361106,0.000118,-0.000118,-0.090174,0.000097,,,,0.000000,0.000000,2.000000,1.000000,0.000000,0.000000,-0.000221,0.000000,0.000000,3.141590,-0.000002,-0.138970,-3.141498,1.493753,0.000119,0.869494,,,,,48.684505,0.003551,-0.032740,-0.014177,
0.840393,-0.087986,0.000459,2.172535,-0.704061,0.000260,-0.231657,-0.000099,0.109826,-3.141498,-0.000038,0.261782,-0.000229,-0.000118,-0.086625,0.000097,,,,0.000000,0.000000,2.000000,1.000000,0.000000,0.000000,-0.000219,0.000000,0.000000,3.141590,-0.000018,-0.095772,-3.141498,1.025833,-0.000091,0.868413,,,,,49.370703,0.006821,-2.595846,0.008769,
0.861218,-0.074167,0.000455,2.169306,-0.680351,0.000280,-0.236936,-0.000097,0.115039,-3.141499,0.000526,0.097288,-0.000050,-0.000111,-0.083444,0.000097,,,,0.000000,0.000000,2.000000,1.000000,0.000000,0.000000,-0.000219,0.000000,0.000000,3.141590,0.000026,-0.122064,-3.141499,1.322044,0.000399,0.966884,,,,,49.945288,0.002503,-2.684444,-0.006051,
0.881487,-0.060826,0.000450,2.166094,-0.656072,0.000298,-0.237736,-0.000085,0.116959,-3.141497,0.000568,0.034120,0.000364,-0.000105,-0.083041,0.000098,,,,0.000000,0.000000,2.000000,1.000000,0.000000,0.000000,-0.000217,0.000000,0.000000,3.141590,0.000051,-0.142215,-3.141497,1.544560,0.000696,0.977413,,,,,50.128168,0.002689,5.000000,-0.018029,
0.900272,-0.047977,0.000446,2.162971,-0.631889,0.000315,-0.233500,-0.000068,0.116621,-3.141492,0.001017,-0.044159,0.000242,-0.000088,-0.083379,0.000103,,,,0.000000,0.000000,2.000000,1.000000,0.000000,0.000000,-0.000222,0.000000,0.000000,3.141590,0.000070,-0.202166,-3.141492,2.184494,0.000954,0.847845,,,,,50.045311,0.006284,-5.000000,-0.014625,
0.924626,-0.035619,0.000440,2.159977,-0.608177,0.000329,-0.225055,-0.000047,0.115073,-3.141491,0.001090,-0.108479,0.000013,-0.000068,-0.084927,0.000104,,,,0.000000,0.000000,2.000000,1.000000,0.000000,0.000000,-0.000232,0.000000,0.000000,3.141590,0.000046,-0.153119,-3.141492,1.647244,0.000648,0.863748,,,,,49.742335,-0.003812,-2.803602,-0.013042,
0.948866,-0.035619,0.000440,2.159977,-0.608177,0.000329,-0.225055,-0.000047,0.115073,-3.141491,0.001093,-0.146769,0.000099,-0.000054,-0.086576,0.000107,,,,0.000000,0.000000,2.000000,1.000000,0.000000,0.000000,-0.000236,0.000000,0.000000,3.141590,0.000074,-0.177519,-3.141491,1.899199,0.000968,0.775962,,,,,49.531730,-0.002982,-3.381196,-0.010923,
0.963976,-0.023748,0.000435,2.157126,-0.585030,0.000337,-0.214449,-0.000022,0.112119,-3.141486,0.001341,-0.164812,0.000385,-0.000044,-0.087881,0.000110,,,,0.000000,0.000000,2.000000,1.000000,0.000000,0.000000,-0.000236,0.000000,0.000000,3.141590,0.000075,-0.231659,-3.141486,2.454567,0.001018,0.595365,,,,,49.223379,-0.006002,-5.000000,-0.019213,
0.981162,-0.023748,0.000435,2.157126,-0.585030,0.000337,-0.214449,-0.000022,0.112119,-3.141486,0.001444,-0.162488,0.000447,-0.000028,-0.089807,0.000114,,,,0.000000,0.000000,2.000000,1.000000,0.000000,0.000000,-0.000247,0.000000,0.000000,3.141590,0.000056,-0.183424,-3.141486,1.942773,0.000784,0.662645,,,,,48.996080,-0.010253,-2.351312,-0.021355,
1.002578,-0.012353,0.000429,2.154446,-0.562589,0.000341,-0.202303,0.000007,0.108746,-3.141479,0.001358,-0.188959,0.000146,-0.000016,-0.091254,0.000116,,,,0.000000,0.000000,2.000000,1.000000,0.000000,0.000000,-0.000247,0.000000,0.000000,3.141590,0.000057,-0.247564,-3.141479,2.593623,0.000860,0.451677,,,,,48.688102,-0.008994,-5.000000,-0.012657,
1.022937,-0.001416,0.000424,2.151896,-0.540921,0.000340,-0.190233,0.000039,0.103948,-3.141477,0.001661,-0.277408,0.000090,0.000015,-0.096052,0.000118,,,,0.000000,0.000000,2.000000,1.000000,0.000000,0.000000,-0.000262,0.000000,0.000000,3.141590,0.000043,-0.226795,-3.141479,2.379324,0.000701,0.500564,,,,,48.675067,-0.012213,-4.570196,-0.006652,
1.043208,-0.001416,0.000424,2.151896,-0.540921,0.000340,-0.190233,0.000039,0.103948,-3.141477,0.001661,-0.350104,-0.000013,0.000035,-0.099955,0.000118,,,,0.000000,0.000000,2.000000,1.000000,0.000000,0.000000,-0.000265,0.000000,0.000000,3.141590,0.000051,-0.213080,-3.141477,2.228235,0.000765,0.488525,,,,,48.565608,-0.014314,-4.998477,-0.011558,
1.073877,0.009088,0.000418,2.149406,-0.520207,0.000331,-0.180487,0.000069,0.096905,-3.141477,0.001199,-0.407489,0.000107,0.000045,-0.103095,0.000119,,,,0.000000,0.000000,2.000000,1.000000,0.000000,0.000000,-0.000265,0.000000,0.000000,3.141590,0.000043,-0.205983,-3.141477,2.156518,0.000687,0.510926,,,,,48.501561,-0.015458,-2.011224,-0.008581,
1.084721,0.009088,0.000418,2.149406,-0.520207,0.000331,-0.180487,0.000069,0.096905,-3.141477,0.000582,-0.470480,0.000161,0.000053,-0.108498,0.000119,,,,0.000000,0.000000,2.000000,1.000000,0.000000,0.000000,-0.000267,0.000000,0.000000,3.141590,0.000016,-0.265681,-3.141477,2.781638,0.000484,0.412330,,,,,48.732554,-0.016267,-5.000000,-0.012057,
1.100270,0.009088,0.000418,2.149406,-0.520207,0.000331,-0.180487,0.000069,0.096905,-3.141477,0.000582,-0.470480,0.000161,0.000053,-0.108498,0.000119,,,,0.000000,0.000000,2.000000,1.000000,0.000000,0.000000,-0.000267,0.000000,0.000000,3.141590,0.000020,-0.215232,-3.141477,2.256776,0.000460,0.512901,,,,,48.606858,-0.007460,-0.112642,-0.013686,
1.120789,0.019189,0.000413,2.146954,-0.500960,0.000315,-0.172240,0.000079,0.087441,-3.141477,0.000422,-0.574324,-0.000016,0.000058,-0.119258,0.000118,,,,0.000000,0.000000,2.000000,1.000000,0.000000,0.000000,-0.000267,0.000000,0.000000,3.141590,-0.000021,-0.231127,-3.141477,2.434195,0.000075,0.533665,,,,,48.880646,-0.007890,0.457085,-0.008582,
1.140837,0.028928,0.000408,2.144541,-0.483689,0.000297,-0.163847,0.000090,0.076045,-3.141478,0.001393,-0.588624,-0.000069,0.000066,-0.123955,0.000118,,,,0.000000,0.000000,2.000000,1.000000,0.000000,0.000000,-0.000267,0.000000,0.000000,3.141590,-0.000071,-0.271943,-3.141478,2.873737,-0.000371,0.495647,,,,,49.214565,-0.022147,0.067528,-0.007045,
1.162962,0.028928,0.000408,2.144541,-0.483689,0.000297,-0.163847,0.000090,0.076045,-3.141478,0.003037,-0.594269,-0.000218,0.000097,-0.131064,0.000116,,,,0.000000,0.000000,2.000000,1.000000,0.000000,0.000000,-0.000265,0.000000,0.000000,3.141590,-0.000050,-0.235936,-3.141478,2.490979,-0.000213,0.551233,,,,,49.019714,-0.035334,5.000000,-0.002645,
1.180277,0.038349,0.000404,2.142204,-0.468743,0.000279,-0.154296,0.000146,0.064160,-3.141482,0.003325,-0.598076,-0.000256,0.000124,-0.135840,0.000114,,,,0.000000,0.000000,2.000000,1.000000,0.000000,0.000000,-0.000265,0.000000,0.000000,3.141590,-0.000050,-0.244863,-3.141482,2.586001,-0.000217,0.539079,,,,,49.254804,-0.042419,-1.503173,-0.001547,
1.200564,0.047503,0.000399,2.139925,-0.456174,0.000250,-0.144473,0.000201,0.052434,-3.141484,0.002048,-0.576228,0.000003,0.000178,-0.147566,0.000112,,,,0.000000,0.000000,2.000000,1.000000,0.000000,0.000000,-0.000255,0.000000,0.000000,3.141590,-0.000046,-0.232748,-3.141482,2.451457,-0.000195,0.531792,,,,,48.890515,-0.023064,2.112259,-0.006433,
1.220177,0.047503,0.000399,2.139925,-0.456174,0.000250,-0.144473,0.000201,0.052434,-3.141484,0.001779,-0.558022,-0.000014,0.000201,-0.154337,0.000110,,,,0.000000,0.000000,2.000000,1.000000,0.000000,0.000000,-0.000251,0.000000,0.000000,3.141590,-0.000092,-0.243707,-3.141484,2.562161,-0.000646,0.494332,,,,,48.843232,-0.030370,3.670917,-0.007823,
1.242862,0.056438,0.000396,2.137715,-0.445848,0.000207,-0.135340,0.000237,0.041281,-3.141489,0.001701,-0.544366,-0.000085,0.000216,-0.158719,0.000108,,,,0.000000,0.000000,2.000000,1.000000,0.000000,0.000000,-0.000251,0.000000,0.000000,3.141590,-0.000198,-0.269913,-3.141489,2.825780,-0.001658,0.403730,,,,,48.748134,-0.038534,0.658533,-0.006125,
1.261044,0.056438,0.000396,2.137715,-0.445848,0.000207,-0.135340,0.000237,0.041281,-3.141489,0.001330,-0.533364,0.000032,0.000236,-0.165124,0.000104,,,,0.000000,0.000000,2.000000,1.000000,0.000000,0.000000,-0.000239,0.000000,0.000000,3.141590,-0.000164,-0.259441,-3.141489,2.718876,-0.001343,0.433551,,,,,48.748134,-0.038847,-0.401866,-0.005548,
1.280352,0.065199,0.000394,2.135549,-0.437622,0.000157,-0.127144,0.000266,0.030592,-3.141494,-0.000154,-0.538044,-0.000174,0.000249,-0.175869,0.000099,,,,0.000000,0.000000,2.000000,1.000000,0.000000,0.000000,-0.000227,0.000000,0.000000,3.141590,-0.000254,-0.237160,-3.141494,2.479894,-0.002288,0.449835,,,,,48.635029,-0.019104,3.346192,0.016724,
1.301666,0.073829,0.000393,2.133425,-0.431389,0.000101,-0.120047,0.000261,0.019894,-3.141499,-0.001112,-0.524158,-0.000090,0.000242,-0.180106,0.000098,,,,0.000000,0.000000,2.000000,1.000000,0.000000,0.000000,-0.000227,0.000000,0.000000,3.141590,-0.000369,-0.233452,-3.141499,2.439620,-0.003455,0.449652,,,,,48.564174,-0.025241,2.291990,-0.002894,
1.320333,0.073829,0.000393,2.133425,-0.431389,0.000101,-0.120047,0.000261,0.019894,-3.141499,-0.002355,-0.476686,0.000286,0.000202,-0.189944,0.000098,,,,0.000000,0.000000,2.000000,1.000000,0.000000,0.000000,-0.000217,0.000000,0.000000,3.141590,-0.000302,-0.228647,-3.141499,2.388629,-0.002792,0.454094,,,,,48.538104,-0.000216,2.640633,-0.016194,
1.340669,0.090863,0.000393,2.129326,-0.424873,0.000002,-0.106452,0.000177,0.001389,-3.141499,-0.002120,-0.398468,0.000102,0.000157,-0.198611,0.000098,,,,0.000000,0.000000,2.000000,1.000000,0.000000,0.000000,-0.000217,0.000000,0.000000,3.141590,-0.000435,-0.222991,-3.141499,2.323533,-0.004133,0.436551,,,,,48.330794,-0.007550,5.000000,-0.008152,
1.361211,0.090863,0.000393,2.129326,-0.424873,0.000002,-0.106452,0.000177,0.001389,-3.141499,-0.002672,-0.339440,0.000231,0.000129,-0.202937,0.000099,,,,0.000000,0.000000,2.000000,1.000000,0.000000,0.000000,-0.000217,0.000000,0.000000,3.141590,-0.000498,-0.212607,-3.141499,2.208422,-0.004775,0.420373,,,,,48.143714,-0.002946,2.799001,-0.014342,
1.380889,0.099344,0.000395,2.127334,-0.424255,-0.000032,-0.100777,0.000127,-0.005404,-3.141498,-0.002869,-0.298225,0.000070,0.000107,-0.205404,0.000099,,,,0.000000,0.000000,2.000000,1.000000,0.000000,0.000000,-0.000217,0.000000,0.000000,3.141590,-0.000569,-0.218348,-3.141498,2.253574,-0.005427,0.346481,,,,,48.128363,-0.000630,4.064874,-0.009675,
1.404392,0.107840,0.000397,2.125337,-0.424989,-0.000058,-0.097331,0.000060,-0.010035,-3.141501,-0.003490,-0.184674,-0.000014,0.000041,-0.210035,0.000096,,,,0.000000,0.000000,2.000000,1.000000,0.000000,0.000000,-0.000218,0.000000,0.000000,3.141590,-0.000507,-0.199044,-3.141498,2.059969,-0.004881,0.402279,,,,,47.960081,0.002098,1.988183,-0.006230,
1.420426,0.107840,0.000397,2.125337,-0.424989,-0.000058,-0.097331,0.000060,-0.010035,-3.141501,-0.003395,-0.130557,-0.000225,0.000001,-0.211816,0.000094,,,,0.000000,0.000000,2.000000,1.000000,0.000000,0.000000,-0.000212,0.000000,0.000000,3.141590,-0.000514,-0.185375,-3.141501,1.919141,-0.004997,0.423897,,,,,47.896532,0.008610,2.291230,-0.000983,
1.444205,0.116370,0.000399,2.123311,-0.426636,-0.000072,-0.096298,-0.000007,-0.012636,-3.141504,-0.003206,-0.091970,0.000011,-0.000025,-0.212636,0.000093,,,,0.000000,0.000000,2.000000,1.000000,0.000000,0.000000,-0.000212,0.000000,0.000000,3.141590,-0.000523,-0.167064,-3.141504,1.733355,-0.005148,0.468693,,,,,47.938986,-0.005947,3.293991,-0.007847,
1.461761,0.124942,0.000401,2.121240,-0.428787,-0.000071,-0.097098,-0.000070,-0.013214,-3.141507,-0.003044,0.015143,-0.000390,-0.000088,-0.213214,0.000091,,,,0.000000,0.000000,2.000000,1.000000,0.000000,0.000000,-0.000206,0.000000,0.000000,3.141590,-0.000487,-0.169842,-3.141507,1.764958,-0.004789,0.481659,,,,,47.926786,0.010488,0.930928,0.007648,
1.483883,0.124942,0.000401,2.121240,-0.428787,-0.000071,-0.097098,-0.000070,-0.013214,-3.141507,-0.003130,0.077309,-0.000130,-0.000126,-0.212532,0.000090,,,,0.000000,0.000000,2.000000,1.000000,0.000000,0.000000,-0.000200,0.000000,0.000000,3.141590,-0.000455,-0.178387,-3.141507,1.855014,-0.004449,0.478295,,,,,48.089277,0.015220,0.525544,-0.006610,
1.502851,0.133560,0.000403,2.119116,-0.431059,-0.000058,-0.099375,-0.000131,-0.011657,-3.141507,-0.002862,0.119378,0.000086,-0.000149,-0.211657,0.000090,,,,0.000000,0.000000,2.000000,1.000000,0.000000,0.000000,-0.000200,0.000000,0.000000,3.141590,-0.000418,-0.155762,-3.141507,1.623923,-0.004133,0.531231,,,,,48.089876,0.013735,1.787893,-0.003391,
1.521404,0.142217,0.000404,2.116959,-0.433023,-0.000032,-0.102237,-0.000183,-0.008125,-3.141505,-0.002497,0.215089,0.000090,-0.000201,-0.208125,0.000092,,,,0.000000,0.000000,2.000000,1.000000,0.000000,0.000000,-0.000199,0.000000,0.000000,3.141590,-0.000400,-0.168663,-3.141507,1.758177,-0.003925,0.515175,,,,,48.170469,0.013786,0.599489,-0.006932,
1.540904,0.142217,0.000404,2.116959,-0.433023,-0.000032,-0.102237,-0.000183,-0.008125,-3.141505,-0.002156,0.241135,0.000768,-0.000229,-0.205298,0.000095,,,,0.000000,0.000000,2.000000,1.000000,0.000000,0.000000,-0.000203,0.000000,0.000000,3.141590,-0.000354,-0.129685,-3.141505,1.356701,-0.003537,0.592833,,,,,48.267628,0.016124,0.812080,-0.010038,
1.563610,0.150898,0.000405,2.114793,-0.434249,0.000006,-0.104814,-0.000227,-0.003297,-3.141500,-0.002261,0.253382,0.000194,-0.000247,-0.203297,0.000098,,,,0.000000,0.000000,2.000000,1.000000,0.000000,0.000000,-0.000203,0.000000,0.000000,3.141590,-0.000274,-0.136323,-3.141500,1.423701,-0.002682,0.568821,,,,,48.189669,0.027469,1.594699,-0.003895,
1.583637,0.150898,0.000405,2.114793,-0.434249,0.000006,-0.104814,-0.000227,-0.003297,-3.141500,-0.001599,0.277256,-0.000148,-0.000269,-0.200075,0.000097,,,,0.000000,0.000000,2.000000,1.000000,0.000000,0.000000,-0.000215,0.000000,0.000000,3.141590,-0.000289,-0.145896,-3.141500,1.523097,-0.002822,0.555419,,,,,48.192931,0.014190,0.527560,-0.003390,
1.602591,0.159584,0.000405,2.112619,-0.434450,0.000054,-0.107331,-0.000261,0.002256,-3.141501,-0.000692,0.309915,-0.000258,-0.000291,-0.194073,0.000094,,,,0.000000,0.000000,2.000000,1.000000,0.000000,0.000000,-0.000215,0.000000,0.000000,3.141590,-0.000182,-0.135282,-3.141501,1.413234,-0.001745,0.572753,,,,,48.202086,0.094779,1.328486,-0.012335,
1.623649,0.168251,0.000403,2.110427,-0.433502,0.000107,-0.110429,-0.000277,0.008424,-3.141506,-0.000527,0.312966,-0.000066,-0.000295,-0.191576,0.000091,,,,0.000000,0.000000,2.000000,1.000000,0.000000,0.000000,-0.000213,0.000000,0.000000,3.141590,-0.000088,-0.104815,-3.141506,1.099148,-0.000820,0.638144,,,,,48.268916,0.016860,0.812115,-0.005706,
1.640761,0.168251,0.000403,2.110427,-0.433502,0.000107,-0.110429,-0.000277,0.008424,-3.141506,-0.000393,0.330038,0.000103,-0.000299,-0.187709,0.000090,,,,0.000000,0.000000,2.000000,1.000000,0.000000,0.000000,-0.000202,0.000000,0.000000,3.141590,-0.000135,-0.111155,-3.141506,1.162432,-0.001292,0.604651,,,,,48.305346,0.013557,1.173475,-0.010297,
1.661207,0.176877,0.000401,2.108220,-0.431310,0.000161,-0.113923,-0.000284,0.015019,-3.141509,-0.000072,0.364221,-0.000107,-0.000303,-0.180679,0.000084,,,,0.000000,0.000000,2.000000,1.000000,0.000000,0.000000,-0.000202,0.000000,0.000000,3.141590,-0.000029,-0.126961,-3.141509,1.326474,-0.000186,0.581660,,,,,48.189504,0.000264,-2.269763,0.005702,
1.680877,0.176877,0.000401,2.108220,-0.431310,0.000161,-0.113923,-0.000284,0.015019,-3.141509,-0.000072,0.364221,-0.000107,-0.000303,-0.180679,0.000084,,,,0.000000,0.000000,2.000000,1.000000,0.000000,0.000000,-0.000195,0.000000,0.000000,3.141590,-0.000077,-0.111613,-3.141509,1.168040,-0.000704,0.611556,,,,,48.190360,0.014101,-0.497224,-0.003411,
1.700892,0.185435,0.000397,2.105998,-0.427790,0.000217,-0.117499,-0.000284,0.022245,-3.141514,0.000830,0.353881,0.000060,-0.000292,-0.173453,0.000081,,,,0.000000,0.000000,2.000000,1.000000,0.000000,0.000000,-0.000184,0.000000,0.000000,3.141590,0.000063,-0.126952,-3.141514,1.334429,0.000717,0.612899,,,,,48.338625,0.027905,-1.726728,-0.009445,
1.720370,0.193897,0.000393,2.103764,-0.422820,0.000272,-0.121114,-0.000267,0.029349,-3.141517,0.001164,0.349133,0.000087,-0.000283,-0.170651,0.000079,,,,0.000000,0.000000,2.000000,1.000000,0.000000,0.000000,-0.000184,0.000000,0.000000,3.141590,0.000004,-0.109850,-3.141514,1.192713,-0.000086,0.629872,,,,,48.325934,0.009284,-0.781752,-0.008529,
1.740741,0.193897,0.000393,2.103764,-0.422820,0.000272,-0.121114,-0.000267,0.029349,-3.141517,0.001657,0.364638,-0.000012,-0.000265,-0.166327,0.000077,,,,0.000000,0.000000,2.000000,1.000000,0.000000,0.000000,-0.000176,0.000000,0.000000,3.141590,0.000071,-0.127857,-3.141517,1.340244,0.000831,0.615156,,,,,48.350382,0.001712,-1.188927,-0.006209,
1.760647,0.202233,0.000387,2.101530,-0.416395,0.000324,-0.124273,-0.000237,0.036606,-3.141521,0.001376,0.384555,0.000145,-0.000234,-0.158912,0.000076,,,,0.000000,0.000000,2.000000,1.000000,0.000000,0.000000,-0.000168,0.000000,0.000000,3.141590,0.000176,-0.106787,-3.141521,1.124888,0.001914,0.683868,,,,,48.548339,0.007876,4.573889,-0.010556,
1.780959,0.210417,0.000380,2.099321,-0.408563,0.000370,-0.126425,-0.000207,0.044241,-3.141518,0.001845,0.414237,0.000414,-0.000202,-0.150849,0.000081,,,,0.000000,0.000000,2.000000,1.000000,0.000000,0.000000,-0.000168,0.000000,0.000000,3.141590,0.000242,-0.127973,-3.141518,1.343779,0.002612,0.633108,,,,,48.534456,0.014908,-3.803372,-0.022855,
1.800310,0.218415,0.000373,2.097183,-0.399239,0.000411,-0.126787,-0.000169,0.052400,-3.141514,0.002256,0.400845,0.000237,-0.000186,-0.147600,0.000082,,,,0.000000,0.000000,2.000000,1.000000,0.000000,0.000000,-0.000174,0.000000,0.000000,3.141590,0.000184,-0.129951,-3.141518,1.363748,0.002004,0.625190,,,,,48.417347,0.003556,-2.615072,-0.018545,
1.821101,0.218415,0.000373,2.097183,-0.399239,0.000411,-0.126787,-0.000169,0.052400,-3.141514,0.002528,0.358887,-0.000001,-0.000157,-0.143113,0.000083,,,,0.000000,0.000000,2.000000,1.000000,0.000000,0.000000,-0.000184,0.000000,0.000000,3.141590,0.000221,-0.112958,-3.141514,1.184588,0.002391,0.632335,,,,,48.294151,-0.003930,-2.844419,-0.006792,
1.843469,0.226194,0.000365,2.095109,-0.388295,0.000445,-0.125998,-0.000121,0.059542,-3.141513,0.002538,0.322876,0.000025,-0.000138,-0.140458,0.000083,,,,0.000000,0.000000,2.000000,1.000000,0.000000,0.000000,-0.000184,0.000000,0.000000,3.141590,0.000195,-0.115474,-3.141514,1.210725,0.002116,0.628202,,,,,48.342830,-0.007412,2.752772,-0.006793,
1.861368,0.233725,0.000356,2.093047,-0.375874,0.000469,-0.126099,-0.000076,0.064927,-3.141513,0.002051,0.233541,-0.000104,-0.000093,-0.135073,0.000082,,,,0.000000,0.000000,2.000000,1.000000,0.000000,0.000000,-0.000185,0.000000,0.000000,3.141590,0.000295,-0.154537,-3.141513,1.614398,0.003147,0.553390,,,,,48.246553,-0.003533,-2.700349,-0.003876,
1.880421,0.233725,0.000356,2.093047,-0.375874,0.000469,-0.126099,-0.000076,0.064927,-3.141513,0.002197,0.142690,-0.000020,-0.000050,-0.131515,0.000084,,,,0.000000,0.000000,2.000000,1.000000,0.000000,0.000000,-0.000184,0.000000,0.000000,3.141590,0.000241,-0.130199,-3.141513,1.362448,0.002590,0.595141,,,,,48.252248,-0.005150,-2.343401,-0.008029,
1.901643,0.240990,0.000347,2.090980,-0.362409,0.000482,-0.127052,-0.000034,0.068485,-3.141512,0.002457,0.105931,0.000236,-0.000023,-0.130136,0.000086,,,,0.000000,0.000000,2.000000,1.000000,0.000000,0.000000,-0.000184,0.000000,0.000000,3.141590,0.000273,-0.169820,-3.141512,1.528565,0.002900,0.646042,,,,,48.621531,-0.008138,-2.919470,-0.013706,
1.921351,0.247975,0.000338,2.088905,-0.348315,0.000487,-0.127688,0.000012,0.070577,-3.141508,0.001976,0.042774,0.000099,0.000021,-0.128783,0.000089,,,,0.000000,0.000000,2.000000,1.000000,0.000000,0.000000,-0.000196,0.000000,0.000000,3.141590,0.000252,-0.156550,-3.141508,1.656892,0.002756,0.687187,,,,,48.967319,-0.008033,-3.414214,-0.014284,
1.943070,0.254671,0.000329,2.086846,-0.333899,0.000484,-0.127166,0.000055,0.071407,-3.141507,0.001855,0.017288,-0.000058,0.000037,-0.128593,0.000089,,,,0.000000,0.000000,2.000000,1.000000,0.000000,0.000000,-0.000196,0.000000,0.000000,3.141590,0.000215,-0.183071,-3.141507,1.938732,0.002375,0.661463,,,,,49.052012,-0.008011,-3.087362,-0.005543,
1.961868,0.261073,0.000320,2.084821,-0.319379,0.000472,-0.125119,0.000092,0.070836,-3.141508,0.001802,-0.057567,-0.000237,0.000074,-0.129164,0.000088,,,,0.000000,0.000000,2.000000,1.000000,0.000000,0.000000,-0.000199,0.000000,0.000000,3.141590,0.000203,-0.178965,-3.141507,1.893283,0.002251,0.655900,,,,,48.924539,-0.011083,-2.167589,-0.009703,
1.981584,0.261073,0.000320,2.084821,-0.319379,0.000472,-0.125119,0.000092,0.070836,-3.141508,0.001513,-0.093837,0.000390,0.000093,-0.130173,0.000089,,,,0.000000,0.000000,2.000000,1.000000,0.000000,0.000000,-0.000198,0.000000,0.000000,3.141590,0.000182,-0.169561,-3.141508,1.797378,0.002033,0.688425,,,,,49.030170,-0.007060,1.424422,-0.029213,
2.002685,0.267185,0.000311,2.082842,-0.305016,0.000452,-0.121897,0.000121,0.068952,-3.141507,0.001254,-0.115284,-0.000350,0.000103,-0.131048,0.000088,,,,0.000000,0.000000,2.000000,1.000000,0.000000,0.000000,-0.000198,0.000000,0.000000,3.141590,0.000136,-0.187798,-3.141507,1.991480,0.001565,0.669434,,,,,49.068122,-0.010718,-1.126366,0.002863,
2.022368,0.273011,0.000303,2.080934,-0.291077,0.000426,-0.117412,0.000140,0.066189,-3.141514,0.001079,-0.151925,-0.000246,0.000124,-0.133811,0.000082,,,,0.000000,0.000000,2.000000,1.000000,0.000000,0.000000,-0.000198,0.000000,0.000000,3.141590,0.000130,-0.174024,-3.141507,1.839310,0.001501,0.652381,,,,,48.865010,-0.007092,-0.376242,-0.003952,
2.042625,0.273011,0.000303,2.080934,-0.291077,0.000426,-0.117412,0.000140,0.066189,-3.141514,0.000781,-0.166935,-0.000292,0.000134,-0.135768,0.000080,,,,0.000000,0.000000,2.000000,1.000000,0.000000,0.000000,-0.000184,0.000000,0.000000,3.141590,0.000088,-0.187623,-3.141514,1.980402,0.001058,0.621094,,,,,48.927406,-0.013851,-2.693182,0.000434,
2.061487,0.278566,0.000296,2.079080,-0.277735,0.000396,-0.112562,0.000156,0.062828,-3.141515,0.000480,-0.176714,0.000133,0.000140,-0.137172,0.000081,,,,0.000000,0.000000,2.000000,1.000000,0.000000,0.000000,-0.000184,0.000000,0.000000,3.141590,0.000010,-0.216293,-3.141515,2.274212,0.000280,0.540020,,,,,48.745884,-0.010878,-1.731478,-0.010728,
2.080327,0.278566,0.000296,2.079080,-0.277735,0.000396,-0.112562,0.000156,0.062828,-3.141515,0.000354,-0.194811,0.000119,0.000145,-0.139406,0.000081,,,,0.000000,0.000000,2.000000,1.000000,0.000000,0.000000,-0.000180,0.000000,0.000000,3.141590,0.000049,-0.186440,-3.141515,1.962358,0.000655,0.593184,,,,,48.698575,-0.005837,3.933839,-0.010235,
2.103568,0.283863,0.000289,2.077278,-0.265076,0.000364,-0.108153,0.000160,0.058877,-3.141515,-0.000756,-0.242326,0.000098,0.000138,-0.143990,0.000082,,,,0.000000,0.000000,2.000000,1.000000,0.000000,0.000000,-0.000180,0.000000,0.000000,3.141590,-0.000010,-0.199006,-3.141515,2.094694,0.000060,0.576458,,,,,48.774402,0.013487,-0.516566,-0.009877,
2.122024,0.288918,0.000283,2.075525,-0.253190,0.000331,-0.103800,0.000148,0.054017,-3.141514,-0.000705,-0.278958,-0.000119,0.000122,-0.149251,0.000082,,,,0.000000,0.000000,2.000000,1.000000,0.000000,0.000000,-0.000181,0.000000,0.000000,3.141590,-0.000092,-0.229719,-3.141514,2.416548,-0.000740,0.523875,,,,,48.818261,-0.038251,-5.000000,-0.015515,
2.141042,0.293751,0.000277,2.073827,-0.242238,0.000301,-0.099356,0.000134,0.048468,-3.141514,-0.000705,-0.278958,-0.000119,0.000122,-0.149251,0.000082,,,,0.000000,0.000000,2.000000,1.000000,0.000000,0.000000,-0.000184,0.000000,0.000000,3.141590,-0.000144,-0.232274,-3.141514,2.439061,-0.001249,0.501289,,,,,48.753634,-0.003091,-0.061501,-0.003454,
2.161688,0.293751,0.000277,2.073827,-0.242238,0.000301,-0.099356,0.000134,0.048468,-3.141514,-0.000578,-0.276335,0.000204,0.000110,-0.154866,0.000084,,,,0.000000,0.000000,2.000000,1.000000,0.000000,0.000000,-0.000183,0.000000,0.000000,3.141590,-0.000086,-0.205028,-3.141514,2.154945,-0.000699,0.552816,,,,,48.688722,0.003172,3.565864,-0.015212,
2.180570,0.298385,0.000272,2.072187,-0.232391,0.000274,-0.094735,0.000119,0.042920,-3.141515,-0.000830,-0.275339,-0.000213,0.000103,-0.157080,0.000081,,,,0.000000,0.000000,2.000000,1.000000,0.000000,0.000000,-0.000183,0.000000,0.000000,3.141590,-0.000148,-0.225970,-3.141515,2.351305,-0.001235,0.484351,,,,,48.571093,-0.014725,-4.379182,-0.000733,
2.200914,0.302842,0.000267,2.070617,-0.223665,0.000250,-0.089814,0.000090,0.037495,-3.141522,-0.001551,-0.273965,-0.000101,0.000076,-0.162505,0.000074,,,,0.000000,0.000000,2.000000,1.000000,0.000000,0.000000,-0.000181,0.000000,0.000000,3.141590,-0.000090,-0.200690,-3.141515,2.104751,-0.000753,0.536370,,,,,48.568103,0.018702,2.506866,-0.029821,
2.222647,0.302842,0.000267,2.070617,-0.223665,0.000250,-0.089814,0.000090,0.037495,-3.141522,-0.001551,-0.273965,-0.000101,0.000076,-0.162505,0.000074,,,,0.000000,0.000000,2.000000,1.000000,0.000000,0.000000,-0.000165,0.000000,0.000000,3.141590,-0.000134,-0.222313,-3.141522,2.324666,-0.001180,0.473891,,,,,48.472454,0.001902,-0.677422,-0.002232,
2.240483,0.307145,0.000263,2.069097,-0.215987,0.000229,-0.085287,0.000061,0.031930,-3.141525,-0.001317,-0.280597,-0.000105,0.000047,-0.168070,0.000071,,,,0.000000,0.000000,2.000000,1.000000,0.000000,0.000000,-0.000165,0.000000,0.000000,3.141590,-0.000158,-0.210248,-3.141525,2.194292,-0.001438,0.472459,,,,,48.487637,-0.005484,1.690817,-0.004197,
2.263674,0.311317,0.000259,2.067589,-0.209374,0.000216,-0.082325,0.000043,0.026308,-3.141528,-0.000962,-0.277511,-0.000249,0.000029,-0.173692,0.000068,,,,0.000000,0.000000,2.000000,1.000000,0.000000,0.000000,-0.000157,0.000000,0.000000,3.141590,-0.000118,-0.199876,-3.141525,2.087034,-0.001052,0.492204,,,,,48.352786,0.000621,1.575758,0.000426,
2.283151,0.311317,0.000259,2.067589,-0.209374,0.000216,-0.082325,0.000043,0.026308,-3.141528,-0.001151,-0.253389,-0.000068,0.000016,-0.176836,0.000068,,,,0.000000,0.000000,2.000000,1.000000,0.000000,0.000000,-0.000157,0.000000,0.000000,3.141590,-0.000134,-0.203225,-3.141528,2.123170,-0.001218,0.493152,,,,,48.390337,0.007721,2.926152,-0.008207,
2.300380,0.315381,0.000255,2.066081,-0.203881,0.000207,-0.080693,0.000018,0.021229,-3.141528,-0.001527,-0.238367,-0.000072,0.000005,-0.178771,0.000068,,,,0.000000,0.000000,2.000000,1.000000,0.000000,0.000000,-0.000152,0.000000,0.000000,3.141590,-0.000136,-0.201996,-3.141528,2.116237,-0.001239,0.523769,,,,,48.555700,0.006326,0.376911,-0.003903,
2.323308,0.315381,0.000255,2.066081,-0.203881,0.000207,-0.080693,0.000018,0.021229,-3.141528,-0.001285,-0.214147,-0.000105,-0.000012,-0.181435,0.000068,,,,0.000000,0.000000,2.000000,1.000000,0.000000,0.000000,-0.000151,0.000000,0.000000,3.141590,-0.000116,-0.194835,-3.141528,2.039088,-0.001046,0.522962,,,,,48.448281,0.006843,2.226130,-0.002927,
2.341816,0.319359,0.000251,2.064563,-0.199441,0.000202,-0.079846,-0.000008,0.016957,-3.141529,-0.001068,-0.196328,0.000150,-0.000022,-0.183043,0.000068,,,,0.000000,0.000000,2.000000,1.000000,0.000000,0.000000,-0.000151,0.000000,0.000000,3.141590,-0.000110,-0.194314,-3.141529,2.039910,-0.000989,0.555549,,,,,48.599405,0.005155,1.599942,-0.010345,
2.360684,0.323268,0.000247,2.063038,-0.195868,0.000203,-0.079382,-0.000023,0.013395,-3.141528,-0.000575,-0.173124,0.000141,-0.000036,-0.186605,0.000068,,,,0.000000,0.000000,2.000000,1.000000,0.000000,0.000000,-0.000150,0.000000,0.000000,3.141590,-0.000104,-0.194672,-3.141529,2.043444,-0.000927,0.553940,,,,,48.591966,0.003040,1.493467,-0.003876,
2.382307,0.323268,0.000247,2.063038,-0.195868,0.000203,-0.079382,-0.000023,0.013395,-3.141528,-0.000528,-0.155090,-0.000019,-0.000042,-0.188550,0.000068,,,,0.000000,0.000000,2.000000,1.000000,0.000000,0.000000,-0.000151,0.000000,0.000000,3.141590,-0.000090,-0.185483,-3.141528,1.949428,-0.000793,0.579204,,,,,48.643569,0.002058,1.222851,-0.010050,
2.401516,0.327120,0.000244,2.061532,-0.192995,0.000208,-0.078308,-0.000033,0.010308,-3.141530,-0.000514,-0.138862,-0.000068,-0.000047,-0.189692,0.000067,,,,0.000000,0.000000,2.000000,1.000000,0.000000,0.000000,-0.000151,0.000000,0.000000,3.141590,-0.000075,-0.190722,-3.141530,2.000764,-0.000640,0.552952,,,,,48.548095,0.003210,1.600646,-0.003994,
2.420429,0.330928,0.000239,2.060032,-0.190738,0.000214,-0.077101,-0.000046,0.008136,-3.141533,-0.000450,-0.085199,-0.000115,-0.000059,-0.191864,0.000064,,,,0.000000,0.000000,2.000000,1.000000,0.000000,0.000000,-0.000148,0.000000,0.000000,3.141590,-0.000051,-0.185302,-3.141533,1.943507,-0.000408,0.557986,,,,,48.523426,0.004392,1.356090,-0.002562,
2.441202,0.334703,0.000235,2.058531,-0.188961,0.000222,-0.076586,-0.000053,0.007063,-3.141535,-0.000034,-0.033585,-0.000215,-0.000065,-0.192937,0.000061,,,,0.000000,0.000000,2.000000,1.000000,0.000000,0.000000,-0.000141,0.000000,0.000000,3.141590,-0.000024,-0.179077,-3.141535,1.879948,-0.000140,0.575534,,,,,48.536042,0.004658,4.541537,-0.002415,
2.460324,0.334703,0.000235,2.058531,-0.188961,0.000222,-0.076586,-0.000053,0.007063,-3.141535,-0.000135,-0.010008,-0.000140,-0.000067,-0.193136,0.000061,,,,0.000000,0.000000,2.000000,1.000000,0.000000,0.000000,-0.000135,0.000000,0.000000,3.141590,-0.000031,-0.181498,-3.141535,1.905177,-0.000210,0.571445,,,,,48.552146,0.003812,0.608809,-0.002561,
2.481228,0.338447,0.000231,2.057022,-0.187424,0.000232,-0.076593,-0.000056,0.006861,-3.141535,-0.000147,0.003012,-0.000061,-0.000068,-0.193139,0.000061,,,,0.000000,0.000000,2.000000,1.000000,0.000000,0.000000,-0.000135,0.000000,0.000000,3.141590,-0.000008,-0.175998,-3.141535,1.849432,0.000028,0.589509,,,,,48.590576,0.008831,0.007700,-0.003743,
2.503306,0.338447,0.000231,2.057022,-0.187424,0.000232,-0.076593,-0.000056,0.006861,-3.141535,-0.000120,0.029329,0.000032,-0.000069,-0.192894,0.000061,,,,0.000000,0.000000,2.000000,1.000000,0.000000,0.000000,-0.000135,0.000000,0.000000,3.141590,-0.000019,-0.179112,-3.141535,1.881569,-0.000090,0.582387,,,,,48.583364,0.003772,0.761996,-0.006459,
2.520456,0.342161,0.000226,2.055506,-0.185932,0.000243,-0.076916,-0.000057,0.007448,-3.141536,-0.000036,0.047013,-0.000144,-0.000069,-0.192552,0.000061,,,,0.000000,0.000000,2.000000,1.000000,0.000000,0.000000,-0.000135,0.000000,0.000000,3.141590,-0.000001,-0.184679,-3.141536,1.941339,0.000104,0.582185,,,,,48.640629,0.004257,0.255721,-0.001339,
2.542360,0.342161,0.000226,2.055506,-0.185932,0.000243,-0.076916,-0.000057,0.007448,-3.141536,0.000178,0.068454,0.000042,-0.000068,-0.191807,0.000060,,,,0.000000,0.000000,2.000000,1.000000,0.000000,0.000000,-0.000134,0.000000,0.000000,3.141590,-0.000008,-0.185086,-3.141536,1.945237,0.000033,0.579624,,,,,48.627714,-0.000103,-0.266757,-0.008547,
2.567420,0.345844,0.000221,2.053977,-0.184339,0.000254,-0.077520,-0.000055,0.008793,-3.141536,0.000228,0.084325,0.000031,-0.000065,-0.190220,0.000059,,,,0.000000,0.000000,2.000000,1.000000,0.000000,0.000000,-0.000134,0.000000,0.000000,3.141590,0.000013,-0.189641,-3.141536,1.995174,0.000246,0.584350,,,,,48.695631,-0.001055,-0.988264,-0.009462,
2.582566,0.349489,0.000216,2.052440,-0.182483,0.000264,-0.078291,-0.000052,0.010465,-3.141538,0.000123,0.085768,-0.000227,-0.000064,-0.189535,0.000058,,,,0.000000,0.000000,2.000000,1.000000,0.000000,0.000000,-0.000133,0.000000,0.000000,3.141590,0.000036,-0.193885,-3.141538,2.042788,0.000482,0.593714,,,,,48.675867,0.001471,-0.525372,-0.006361,
2.601488,0.349489,0.000216,2.052440,-0.182483,0.000264,-0.078291,-0.000052,0.010465,-3.141538,0.000216,0.080042,-0.000082,-0.000061,-0.188538,0.000057,,,,0.000000,0.000000,2.000000,1.000000,0.000000,0.000000,-0.000129,0.000000,0.000000,3.141590,0.000027,-0.192944,-3.141538,2.032000,0.000382,0.590533,,,,,48.756929,0.002896,-0.695000,0.001394,
2.621224,0.349489,0.000216,2.052440,-0.182483,0.000264,-0.078291,-0.000052,0.010465,-3.141538,0.000216,0.080042,-0.000082,-0.000061,-0.188538,0.000057,,,,0.000000,0.000000,2.000000,1.000000,0.000000,0.000000,-0.000129,0.000000,0.000000,3.141590,0.000014,-0.191723,-3.141538,2.018050,0.000255,0.586558,,,,,48.747004,-0.005170,-0.751136,-0.019062,
2.655076,0.353088,0.000211,2.050898,-0.180267,0.000274,-0.078897,-0.000047,0.012051,-3.141540,0.000632,0.056621,-0.000108,-0.000051,-0.187210,0.000055,,,,0.000000,0.000000,2.000000,1.000000,0.000000,0.000000,-0.000125,0.000000,0.000000,3.141590,0.000027,-0.195062,-3.141540,2.054684,0.000384,0.589581,,,,,48.803315,-0.000014,-0.953028,-0.004331,
2.661588,0.353088,0.000211,2.050898,-0.180267,0.000274,-0.078897,-0.000047,0.012051,-3.141540,0.000632,0.056621,-0.000108,-0.000051,-0.187210,0.000055,,,,0.000000,0.000000,2.000000,1.000000,0.000000,0.000000,-0.000125,0.000000,0.000000,3.141590,0.000018,-0.193759,-3.141540,2.040127,0.000292,0.587129,,,,,48.781440,-0.001197,-0.745432,-0.004223,
2.698635,0.356635,0.000205,2.049353,-0.177703,0.000283,-0.079341,-0.000035,0.013180,-3.141542,0.000659,0.045942,-0.000129,-0.000046,-0.186820,0.000054,,,,0.000000,0.000000,2.000000,1.000000,0.000000,0.000000,-0.000125,0.000000,0.000000,3.141590,0.000047,-0.200359,-3.141542,2.112757,0.000589,0.593394,,,,,48.762825,-0.002148,-0.733789,-0.002129,
2.716470,0.356635,0.000205,2.049353,-0.177703,0.000283,-0.079341,-0.000035,0.013180,-3.141542,0.000659,0.045942,-0.000129,-0.000046,-0.186820,0.000054,,,,0.000000,0.000000,2.000000,1.000000,0.000000,0.000000,-0.000125,0.000000,0.000000,3.141590,0.000042,-0.199406,-3.141542,2.102188,0.000537,0.592177,,,,,48.747570,-0.002572,-0.665124,-0.002129,
2.722326,0.356635,0.000205,2.049353,-0.177703,0.000283,-0.079341,-0.000035,0.013180,-3.141542,0.000424,0.028953,-0.000182,-0.000038,-0.186405,0.000052,,,,0.000000,0.000000,2.000000,1.000000,0.000000,0.000000,-0.000132,0.000000,0.000000,3.141590,0.000039,-0.198833,-3.141542,2.095843,0.000506,0.591455,,,,,48.734756,-0.003756,-0.461597,-0.001298,
2.741111,0.360125,0.000200,2.047800,-0.174883,0.000290,-0.079759,-0.000019,0.013741,-3.141546,0.002172,0.036602,0.000054,-0.000006,-0.185943,0.000051,,,,0.000000,0.000000,2.000000,1.000000,0.000000,0.000000,-0.000111,0.000000,0.000000,3.141590,-0.000014,-0.140142,-3.141542,1.454949,-0.000073,0.503910,,,,,47.925670,-0.027373,3.866443,-0.004009,
2.766124,0.363557,0.000194,2.046270,-0.171968,0.000295,-0.079458,0.000022,0.014533,-3.141544,0.002242,0.067578,0.000153,0.000011,-0.185467,0.000052,,,,0.000000,0.000000,2.000000,1.000000,0.000000,0.000000,-0.000111,0.000000,0.000000,3.141590,0.000069,-0.099912,-3.141546,1.057238,0.000776,0.736424,,,,,48.214665,-0.009460,2.940969,-0.001655,
2.780438,0.363557,0.000194,2.046270,-0.171968,0.000295,-0.079458,0.000022,0.014533,-3.141544,0.002242,0.067578,0.000153,0.000011,-0.185467,0.000052,,,,0.000000,0.000000,2.000000,1.000000,0.000000,0.000000,-0.000115,0.000000,0.000000,3.141590,0.000072,-0.111327,-3.141544,1.176245,0.000805,0.711967,,,,,48.696855,-0.018730,3.302037,-0.009282,
2.800276,0.366931,0.000188,2.044760,-0.169005,0.000293,-0.078537,0.000072,0.017045,-3.141546,0.002585,0.167467,0.000002,0.000062,-0.182955,0.000050,,,,0.000000,0.000000,2.000000,1.000000,0.000000,0.000000,-0.000115,0.000000,0.000000,3.141590,0.000076,-0.116693,-3.141546,1.230597,0.000850,0.687677,,,,,48.619976,-0.023045,5.000000,-0.005024,
2.822824,0.370239,0.000183,2.043262,-0.165698,0.000279,-0.078153,0.000114,0.021688,-3.141548,0.001937,0.275404,-0.000061,0.000105,-0.178312,0.000048,0.038880,-0.000294,-0.034224,0.000000,0.000000,2.000000,1.000000,0.000000,0.000000,-0.000111,0.000000,0.000000,3.141590,0.000061,-0.120080,-3.141546,1.264181,0.000691,0.667188,,,,,48.609094,-0.019493,-0.031510,-0.005474,
2.845442,0.373463,0.000178,2.041789,-0.161559,0.000256,-0.077952,0.000134,0.028592,-3.141546,0.000452,0.382936,0.000245,0.000124,-0.171408,0.000050,0.034170,-0.000291,-0.033130,0.000000,0.000000,2.000000,1.000000,0.000000,0.000000,-0.000117,0.000000,0.000000,3.141590,0.000038,-0.119886,-3.141548,1.261543,0.000452,0.662424,,,,,48.521424,-0.013620,-0.185443,-0.003027,
2.865484,0.373463,0.000178,2.041789,-0.161559,0.000256,-0.077952,0.000134,0.028592,-3.141546,0.000452,0.382936,0.000245,0.000124,-0.171408,0.000050,0.029552,-0.000288,-0.031900,0.000000,0.000000,2.000000,1.000000,0.000000,0.000000,-0.000111,0.000000,0.000000,3.141590,-0.000028,-0.137337,-3.141546,1.442079,-0.000221,0.624171,,,,,48.523686,-0.009412,-0.861478,-0.012114,
2.883517,0.376571,0.000174,2.040370,-0.156093,0.000228,-0.076917,0.000143,0.036500,-3.141539,0.000457,0.388104,0.000227,0.000132,-0.163500,0.000057,0.027026,-0.000289,-0.032008,0.000000,0.000000,2.000000,1.000000,0.000000,0.000000,-0.000111,0.000000,0.000000,3.141590,-0.000096,-0.139267,-3.141539,1.457755,-0.000909,0.589559,,,,,48.523957,-0.011597,-1.586155,-0.017872,
2.900545,0.376571,0.000174,2.040370,-0.156093,0.000228,-0.076917,0.000143,0.036500,-3.141539,-0.000155,0.356136,0.000205,0.000134,-0.159101,0.000061,0.022433,-0.000287,-0.030967,0.000000,0.000000,2.000000,1.000000,0.000000,0.000000,-0.000127,0.000000,0.000000,3.141590,-0.000061,-0.126700,-3.141539,1.329529,-0.000564,0.627309,,,,,48.325108,-0.013625,-2.507762,-0.011434,
2.925031,0.379529,0.000170,2.039010,-0.148977,0.000200,-0.075041,0.000145,0.043550,-3.141533,-0.000326,0.323290,0.000502,0.000133,-0.156450,0.000063,0.020026,-0.000288,-0.031071,0.000000,0.000000,2.000000,1.000000,0.000000,0.000000,-0.000127,0.000000,0.000000,3.141590,-0.000134,-0.142652,-3.141533,1.489319,-0.001288,0.559294,,,,,48.188230,-0.007534,1.548266,-0.019911,
2.941199,0.382308,0.000167,2.037686,-0.140348,0.000171,-0.073333,0.000125,0.049223,-3.141528,-0.001248,0.251621,0.000404,0.000111,-0.150777,0.000068,0.015518,-0.000286,-0.030077,0.000000,0.000000,2.000000,1.000000,0.000000,0.000000,-0.000140,0.000000,0.000000,3.141590,-0.000107,-0.142978,-3.141533,1.494768,-0.001008,0.573175,,,,,48.205326,-0.004003,-2.000102,-0.012177,
2.962343,0.384889,0.000164,2.036353,-0.130552,0.000145,-0.072938,0.000095,0.053326,-3.141526,-0.001267,0.174736,-0.000072,0.000081,-0.146674,0.000070,0.011130,-0.000284,-0.028977,0.000000,0.000000,2.000000,1.000000,0.000000,0.000000,-0.000152,0.000000,0.000000,3.141590,-0.000241,-0.167756,-3.141526,1.759301,-0.002348,0.578669,,,,,48.240958,0.022481,0.401956,0.030457,
2.980702,0.384889,0.000164,2.036353,-0.130552,0.000145,-0.072938,0.000095,0.053326,-3.141526,-0.001539,0.125990,-0.000077,0.000064,-0.144964,0.000070,0.006733,-0.000283,-0.027866,0.000000,0.000000,2.000000,1.000000,0.000000,0.000000,-0.000157,0.000000,0.000000,3.141590,-0.000183,-0.148515,-3.141526,1.560084,-0.001784,0.617196,,,,,48.498985,0.005974,4.499787,-0.004025,
3.000596,0.387256,0.000162,2.034985,-0.119910,0.000125,-0.074004,0.000066,0.055831,-3.141526,-0.001530,0.090818,0.000037,0.000052,-0.144169,0.000070,0.003973,-0.000284,-0.027974,0.000000,0.000000,2.000000,1.000000,0.000000,0.000000,-0.000157,0.000000,0.000000,3.141590,-0.000219,-0.178282,-3.141526,1.885026,-0.002127,0.651026,,,,,48.492479,0.004154,-0.511666,-0.008766,
3.024536,0.389399,0.000160,2.033607,-0.108760,0.000111,-0.074850,0.000034,0.057241,-3.141524,-0.001820,0.053776,-0.000209,0.000020,-0.142759,0.000071,-0.000089,-0.000283,-0.026942,0.000000,0.000000,2.000000,1.000000,0.000000,0.000000,-0.000156,0.000000,0.000000,3.141590,-0.000185,-0.164490,-3.141526,1.734638,-0.001795,0.640247,,,,,48.895724,-0.000041,-2.505168,-0.007318,
3.043523,0.389399,0.000160,2.033607,-0.108760,0.000111,-0.074850,0.000034,0.057241,-3.141524,-0.001447,0.017971,0.000244,0.000001,-0.142373,0.000072,-0.004054,-0.000283,-0.025772,0.000000,0.000000,2.000000,1.000000,0.000000,0.000000,-0.000159,0.000000,0.000000,3.141590,-0.000197,-0.176579,-3.141524,1.872822,-0.001903,0.685689,,,,,48.715179,0.011988,-0.531580,0.009797,
3.060638,0.389399,0.000160,2.033607,-0.108760,0.000111,-0.074850,0.000034,0.057241,-3.141524,-0.001447,0.017971,0.000244,0.000001,-0.142373,0.000072,-0.006392,-0.000283,-0.025822,0.000000,0.000000,2.000000,1.000000,0.000000,0.000000,-0.000159,0.000000,0.000000,3.141590,-0.000168,-0.153646,-3.141524,1.626616,-0.001634,0.693311,,,,,49.044691,0.003743,-1.023802,-0.013404,
3.082915,0.391313,0.000158,2.032238,-0.097351,0.000103,-0.074361,0.000004,0.057575,-3.141523,-0.001353,-0.052640,-0.000025,-0.000027,-0.142928,0.000074,-0.010110,-0.000283,-0.024769,0.000000,0.000000,2.000000,1.000000,0.000000,0.000000,-0.000163,0.000000,0.000000,3.141590,-0.000178,-0.170753,-3.141523,1.814035,-0.001714,0.710277,,,,,49.127330,0.004090,-1.525577,-0.005725,
3.104128,0.392994,0.000156,2.030902,-0.085856,0.000102,-0.072659,-0.000023,0.056547,-3.141522,-0.001057,-0.070427,-0.000006,-0.000037,-0.143453,0.000074,-0.012705,-0.000284,-0.024847,0.000000,0.000000,2.000000,1.000000,0.000000,0.000000,-0.000163,0.000000,0.000000,3.141590,-0.000173,-0.191741,-3.141522,2.033818,-0.001637,0.666797,,,,,49.092947,0.004471,-0.136436,-0.006272,
3.121147,0.392994,0.000156,2.030902,-0.085856,0.000102,-0.072659,-0.000023,0.056547,-3.141522,-0.001178,-0.098345,0.000066,-0.000052,-0.144529,0.000073,-0.016190,-0.000283,-0.023811,0.000000,0.000000,2.000000,1.000000,0.000000,0.000000,-0.000164,0.000000,0.000000,3.141590,-0.000157,-0.173703,-3.141522,1.842080,-0.001499,0.687906,,,,,49.028166,0.007215,0.753031,-0.009146,
3.141480,0.392994,0.000156,2.030902,-0.085856,0.000102,-0.072659,-0.000023,0.056547,-3.141522,-0.000829,-0.117955,0.000125,-0.000060,-0.145433,0.000073,-0.018838,-0.000284,-0.023888,0.000000,0.000000,2.000000,1.000000,0.000000,0.000000,-0.000164,0.000000,0.000000,3.141590,-0.000151,-0.162400,-3.141522,1.718180,-0.001445,0.676762,,,,,48.988648,0.005770,-0.202634,-0.008417,
3.160513,0.394448,0.000154,2.029603,-0.074534,0.000106,-0.070178,-0.000045,0.054567,-3.141523,-0.000829,-0.117955,0.000125,-0.000060,-0.145433,0.000073,-0.018838,-0.000284,-0.023888,0.000000,0.000000,2.000000,1.000000,0.000000,0.000000,-0.000164,0.000000,0.000000,3.141590,-0.000141,-0.193405,-3.141523,2.045227,-0.001307,0.632680,,,,,48.957814,0.003344,-1.061950,-0.010119,
3.182261,0.394448,0.000154,2.029603,-0.074534,0.000106,-0.070178,-0.000045,0.054567,-3.141523,-0.000811,-0.136451,-0.000152,-0.000070,-0.147012,0.000073,-0.022317,-0.000284,-0.022889,0.000000,0.000000,2.000000,1.000000,0.000000,0.000000,-0.000163,0.000000,0.000000,3.141590,-0.000136,-0.178214,-3.141523,1.885880,-0.001274,0.659819,,,,,48.957814,0.003344,-1.061950,-0.010119,
3.211575,0.395682,0.000152,2.028336,-0.063612,0.000114,-0.067709,-0.000060,0.051823,-3.141524,-0.000650,-0.148943,-0.000294,-0.000075,-0.148177,0.000072,-0.024996,-0.000284,-0.022965,0.000000,0.000000,2.000000,1.000000,0.000000,0.000000,-0.000163,0.000000,0.000000,3.141590,-0.000113,-0.200906,-3.141524,2.122419,-0.001013,0.611714,,,,,48.826309,0.000412,1.113292,0.005743,
3.222462,0.395682,0.000152,2.028336,-0.063612,0.000114,-0.067709,-0.000060,0.051823,-3.141524,-0.000650,-0.148943,-0.000294,-0.000075,-0.148177,0.000072,-0.024996,-0.000284,-0.022965,0.000000,0.000000,2.000000,1.000000,0.000000,0.000000,-0.000163,0.000000,0.000000,3.141590,-0.000115,-0.196852,-3.141524,2.079462,-0.001037,0.616770,,,,,48.923934,0.007389,-5.000000,0.002031,
3.240919,0.396709,0.000149,2.027103,-0.053242,0.000126,-0.065334,-0.000076,0.048805,-3.141522,-0.000698,-0.144414,0.000268,-0.000090,-0.151195,0.000074,-0.032154,-0.000285,-0.022273,0.000000,0.000000,2.000000,1.000000,0.000000,0.000000,-0.000161,0.000000,0.000000,3.141590,-0.000117,-0.192693,-3.141524,2.035427,-0.001063,0.621978,,,,,48.907689,0.003687,-0.728968,0.002033,
3.262187,0.397542,0.000146,2.025918,-0.043501,0.000140,-0.062626,-0.000091,0.045916,-3.141519,-0.000586,-0.147787,-0.000002,-0.000107,-0.154084,0.000077,-0.036266,-0.000284,-0.021147,0.000000,0.000000,2.000000,1.000000,0.000000,0.000000,-0.000166,0.000000,0.000000,3.141590,-0.000096,-0.176999,-3.141522,1.870886,-0.000861,0.649399,,,,,48.876867,0.009094,3.708546,-0.007058,
3.282636,0.398191,0.000143,2.024778,-0.034351,0.000158,-0.059759,-0.000097,0.042959,-3.141514,-0.000280,-0.150234,0.000355,-0.000112,-0.155885,0.000079,-0.038939,-0.000283,-0.020203,0.000000,0.000000,2.000000,1.000000,0.000000,0.000000,-0.000172,0.000000,0.000000,3.141590,-0.000068,-0.202453,-3.141519,2.136977,-0.000540,0.600820,,,,,48.892587,-0.009041,0.905010,-0.041635,
3.301554,0.398191,0.000143,2.024778,-0.034351,0.000158,-0.059759,-0.000097,0.042959,-3.141514,0.000057,-0.157778,0.000289,-0.000113,-0.158884,0.000084,-0.041796,-0.000281,-0.019215,0.000000,0.000000,2.000000,1.000000,0.000000,0.000000,-0.000182,0.000000,0.000000,3.141590,-0.000029,-0.204220,-3.141514,2.157003,-0.000128,0.604911,,,,,48.903920,0.002835,-1.584814,-0.018102,
3.321937,0.398667,0.000140,2.023703,-0.025757,0.000177,-0.056546,-0.000096,0.039710,-3.141512,0.000107,-0.181753,-0.000212,-0.000113,-0.160290,0.000085,-0.044222,-0.000282,-0.019249,0.000000,0.000000,2.000000,1.000000,0.000000,0.000000,-0.000182,0.000000,0.000000,3.141590,0.000009,-0.218233,-3.141512,2.295025,0.000279,0.538928,,,,,48.761615,0.021572,-5.000000,-0.000912,
3.340574,0.398667,0.000140,2.023703,-0.025757,0.000177,-0.056546,-0.000096,0.039710,-3.141512,0.000107,-0.181753,-0.000212,-0.000113,-0.160290,0.000085,-0.047003,-0.000280,-0.018415,0.000000,0.000000,2.000000,1.000000,0.000000,0.000000,-0.000188,0.000000,0.000000,3.141590,-0.000012,-0.201316,-3.141512,2.120955,0.000054,0.582735,,,,,48.771009,-0.003929,2.617946,-0.001090,
3.361579,0.398667,0.000140,2.023703,-0.025757,0.000177,-0.056546,-0.000096,0.039710,-3.141512,-0.000079,-0.207323,0.000037,-0.000114,-0.162679,0.000085,-0.050032,-0.000281,-0.018495,0.000000,0.000000,2.000000,1.000000,0.000000,0.000000,-0.000188,0.000000,0.000000,3.141590,-0.000033,-0.188459,-3.141512,1.983714,-0.000176,0.591045,,,,,48.707212,0.002809,5.000000,-0.008322,
3.382946,0.398984,0.000136,2.022688,-0.017753,0.000196,-0.053011,-0.000098,0.035655,-3.141509,0.000201,-0.174388,0.000094,-0.000114,-0.166594,0.000090,-0.052174,-0.000279,-0.017681,0.000000,0.000000,2.000000,1.000000,0.000000,0.000000,-0.000188,0.000000,0.000000,3.141590,0.000016,-0.204116,-3.141509,2.143704,0.000341,0.546104,,,,,48.647986,0.004685,-0.096476,-0.009987,
3.401438,0.399158,0.000131,2.021743,-0.010523,0.000215,-0.049399,-0.000092,0.032120,-3.141504,0.000482,-0.133670,0.000104,-0.000104,-0.169578,0.000094,-0.054567,-0.000276,-0.016862,0.000000,0.000000,2.000000,1.000000,0.000000,0.000000,-0.000194,0.000000,0.000000,3.141590,0.000051,-0.213620,-3.141504,2.238371,0.000712,0.508420,,,,,48.568704,0.000734,-0.362115,-0.010905,
3.422161,0.399206,0.000126,2.020857,-0.004099,0.000234,-0.045928,-0.000081,0.029409,-3.141501,0.000695,-0.125387,0.000068,-0.000100,-0.170591,0.000095,-0.056993,-0.000273,-0.016095,0.000000,0.000000,2.000000,1.000000,0.000000,0.000000,-0.000205,0.000000,0.000000,3.141590,0.000097,-0.221676,-3.141501,2.316065,0.001180,0.466259,,,,,48.456507,0.003459,-1.330727,-0.009727,
3.440644,0.399206,0.000126,2.020857,-0.004099,0.000234,-0.045928,-0.000081,0.029409,-3.141501,0.000695,-0.125387,0.000068,-0.000100,-0.170591,0.000095,-0.059511,-0.000273,-0.016137,0.000000,0.000000,2.000000,1.000000,0.000000,0.000000,-0.000211,0.000000,0.000000,3.141590,0.000052,-0.206534,-3.141501,2.160464,0.000727,0.501435,,,,,48.474955,0.001275,-0.816960,-0.009728,
3.463078,0.399139,0.000121,2.020004,0.001757,0.000250,-0.043444,-0.000072,0.026949,-3.141501,0.000380,-0.120856,-0.000199,-0.000091,-0.173051,0.000096,-0.061989,-0.000270,-0.015488,0.000000,0.000000,2.000000,1.000000,0.000000,0.000000,-0.000211,0.000000,0.000000,3.141590,0.000087,-0.222867,-3.141501,2.326938,0.001087,0.457497,,,,,48.428221,0.010085,-3.729737,-0.002176,
3.480544,0.398965,0.000116,2.019164,0.007163,0.000265,-0.042148,-0.000062,0.024420,-3.141503,0.000456,-0.132304,-0.000254,-0.000081,-0.175580,0.000094,-0.064150,-0.000271,-0.015519,0.000000,0.000000,2.000000,1.000000,0.000000,0.000000,-0.000213,0.000000,0.000000,3.141590,0.000106,-0.219259,-3.141503,2.291825,0.001267,0.474547,,,,,48.455971,0.005716,-0.938115,-0.000636,
3.516930,0.398695,0.000110,2.018316,0.012106,0.000278,-0.041937,-0.000044,0.021483,-3.141505,0.001107,-0.160564,-0.000227,-0.000062,-0.178517,0.000092,-0.066475,-0.000268,-0.014873,0.000000,0.000000,2.000000,1.000000,0.000000,0.000000,-0.000209,0.000000,0.000000,3.141590,0.000090,-0.207843,-3.141503,2.176412,0.001102,0.510203,,,,,48.495690,0.002436,-0.487649,-0.003795,
3.522241,0.398695,0.000110,2.018316,0.012106,0.000278,-0.041937,-0.000044,0.021483,-3.141505,0.000837,-0.176261,-0.000024,-0.000050,-0.180585,0.000092,-0.068582,-0.000264,-0.014140,0.000000,0.000000,2.000000,1.000000,0.000000,0.000000,-0.000204,0.000000,0.000000,3.141590,0.000085,-0.207508,-3.141503,2.173241,0.001058,0.512270,,,,,48.495690,0.002437,-0.487956,-0.003795,
3.540398,0.398340,0.000104,2.017456,0.016516,0.000287,-0.042364,-0.000026,0.017978,-3.141505,0.000611,-0.180626,-0.000109,-0.000045,-0.182022,0.000091,-0.071104,-0.000264,-0.014173,0.000000,0.000000,2.000000,1.000000,0.000000,0.000000,-0.000204,0.000000,0.000000,3.141590,0.000118,-0.215251,-3.141505,2.265702,0.001397,0.552783,,,,,48.803195,0.009418,-1.483275,-0.004560,
3.562413,0.398340,0.000104,2.017456,0.016516,0.000287,-0.042364,-0.000026,0.017978,-3.141505,0.000396,-0.176151,0.000000,-0.000038,-0.184158,0.000090,-0.073156,-0.000260,-0.013493,0.000000,0.000000,2.000000,1.000000,0.000000,0.000000,-0.000203,0.000000,0.000000,3.141590,0.000109,-0.206230,-3.141505,2.171745,0.001297,0.570957,,,,,48.781962,0.003707,0.323084,-0.007705,
3.580612,0.397915,0.000098,2.016596,0.020251,0.000293,-0.042645,-0.000015,0.014454,-3.141508,0.000624,-0.172510,0.000082,-0.000032,-0.185546,0.000089,-0.075454,-0.000260,-0.013516,0.000000,0.000000,2.000000,1.000000,0.000000,0.000000,-0.000203,0.000000,0.000000,3.141590,0.000103,-0.209632,-3.141508,2.208881,0.001235,0.572116,,,,,48.766973,-0.001535,0.864203,-0.010897,
3.601495,0.397915,0.000098,2.016596,0.020251,0.000293,-0.042645,-0.000015,0.014454,-3.141508,0.000997,-0.162974,-0.000363,-0.000022,-0.187540,0.000086,-0.077671,-0.000257,-0.012840,0.000000,0.000000,2.000000,1.000000,0.000000,0.000000,-0.000198,0.000000,0.000000,3.141590,0.000102,-0.201750,-3.141508,2.126486,0.001219,0.586827,,,,,48.826672,0.000925,0.605029,-0.009811,
3.621857,0.397915,0.000098,2.016596,0.020251,0.000293,-0.042645,-0.000015,0.014454,-3.141508,0.000997,-0.162974,-0.000363,-0.000022,-0.187540,0.000086,-0.080245,-0.000257,-0.012871,0.000000,0.000000,2.000000,1.000000,0.000000,0.000000,-0.000198,0.000000,0.000000,3.141590,0.000095,-0.202030,-3.141508,2.128854,0.001149,0.583542,,,,,48.810120,-0.003512,1.044427,0.002973,
3.640828,0.397434,0.000092,2.015736,0.023250,0.000296,-0.042698,0.000004,0.011198,-3.141513,0.000971,-0.142208,-0.000327,0.000002,-0.190569,0.000080,-0.082423,-0.000253,-0.012189,0.000000,0.000000,2.000000,1.000000,0.000000,0.000000,-0.000198,0.000000,0.000000,3.141590,0.000096,-0.204655,-3.141513,2.156032,0.001148,0.577484,,,,,48.706668,-0.007095,1.775074,0.001546,
3.661361,0.396911,0.000087,2.014877,0.025571,0.000297,-0.042704,0.000026,0.008308,-3.141520,0.001200,-0.132030,-0.000311,0.000026,-0.193315,0.000072,-0.083964,-0.000249,-0.011412,0.000000,0.000000,2.000000,1.000000,0.000000,0.000000,-0.000185,0.000000,0.000000,3.141590,0.000107,-0.201083,-3.141520,2.122903,0.001245,0.604687,,,,,48.892703,-0.016231,1.116721,-0.002135,
3.682019,0.396356,0.000081,2.014044,0.027301,0.000293,-0.042070,0.000052,0.005690,-3.141526,0.001588,-0.121819,-0.000095,0.000038,-0.194310,0.000070,-0.086619,-0.000249,-0.011428,0.000000,0.000000,2.000000,1.000000,0.000000,0.000000,-0.000169,0.000000,0.000000,3.141590,0.000097,-0.201509,-3.141520,2.125875,0.001141,0.596619,,,,,48.876509,-0.008178,1.072346,0.002558,
3.706237,0.396356,0.000081,2.014044,0.027301,0.000293,-0.042070,0.000052,0.005690,-3.141526,0.001588,-0.121819,-0.000095,0.000038,-0.194310,0.000070,-0.088399,-0.000245,-0.010747,0.000000,0.000000,2.000000,1.000000,0.000000,0.000000,-0.000156,0.000000,0.000000,3.141590,0.000094,-0.194867,-3.141526,2.053170,0.001098,0.592540,,,,,48.745054,-0.013613,1.049119,-0.003966,
3.722637,0.395780,0.000075,2.013229,0.028494,0.000285,-0.041050,0.000089,0.003663,-3.141531,0.001925,-0.086228,-0.000312,0.000076,-0.196337,0.000065,-0.090654,-0.000245,-0.010753,0.000000,0.000000,2.000000,1.000000,0.000000,0.000000,-0.000156,0.000000,0.000000,3.141590,0.000089,-0.189563,-3.141526,1.995131,0.001046,0.588520,,,,,48.705675,-0.017307,2.463565,-0.000125,
3.741582,0.395780,0.000075,2.013229,0.028494,0.000285,-0.041050,0.000089,0.003663,-3.141531,0.001925,-0.086228,-0.000312,0.000076,-0.196337,0.000065,-0.090654,-0.000245,-0.010753,0.000000,0.000000,2.000000,1.000000,0.000000,0.000000,-0.000144,0.000000,0.000000,3.141590,0.000068,-0.195847,-3.141531,2.057542,0.000819,0.561176,,,,,48.618904,-0.022754,0.071674,0.002724,
3.771266,0.395193,0.000070,2.012416,0.029228,0.000270,-0.040586,0.000127,0.002455,-3.141536,0.001931,-0.060470,-0.000229,0.000100,-0.197170,0.000063,-0.095276,-0.000242,-0.010108,0.000000,0.000000,2.000000,1.000000,0.000000,0.000000,-0.000144,0.000000,0.000000,3.141590,0.000080,-0.189711,-3.141531,1.995072,0.000939,0.579932,,,,,48.679543,-0.020825,1.093296,-0.000075,
3.784878,0.395193,0.000070,2.012416,0.029228,0.000270,-0.040586,0.000127,0.002455,-3.141536,0.001597,-0.042154,-0.000016,0.000115,-0.197545,0.000061,-0.095276,-0.000242,-0.010108,0.000000,0.000000,2.000000,1.000000,0.000000,0.000000,-0.000135,0.000000,0.000000,3.141590,0.000079,-0.190550,-3.141531,2.004019,0.000932,0.579400,,,,,48.679543,-0.020317,1.119909,0.000640,
3.804809,0.395193,0.000070,2.012416,0.029228,0.000270,-0.040586,0.000127,0.002455,-3.141536,0.001393,-0.015011,-0.000100,0.000133,-0.197832,0.000059,-0.099230,-0.000238,-0.009435,0.000000,0.000000,2.000000,1.000000,0.000000,0.000000,-0.000135,0.000000,0.000000,3.141590,0.000078,-0.191677,-3.141531,2.016029,0.000922,0.578702,,,,,48.581705,-0.020133,1.138557,-0.005249,
